City,Cost_of_Living_Index,Rent_Index,Cost_of_Living_Plus_Rent_Index,Groceries_Index,Restaurant_Price_Index,Local_Purchasing_Power_Index,Country,Year,Alpha_2,Code,lat,lon
Hamilton,145.43,110.87,128.76,143.47,158.75,112.26,Bermuda,2018,BM,060,32.2956076,-64.7827048
Zurich,141.25,66.14,105.03,149.86,135.76,142.7,Switzerland,2018,CH,756,47.3744489,8.5410422
Geneva,134.83,71.7,104.38,138.98,129.74,130.96,Switzerland,2018,CH,756,46.2017559,6.1466014
Basel,130.68,49.68,91.61,127.54,127.22,139.01,Switzerland,2018,CH,756,47.5581077,7.5878261
Bern,128.03,43.57,87.3,132.7,119.48,112.71,Switzerland,2018,CH,756,46.9482713,7.4514512
Lausanne,127.5,52.32,91.24,126.59,132.12,127.95,Switzerland,2018,CH,756,46.5218269,6.6327025
Reykjavik,123.78,57.25,91.7,118.15,133.19,88.95,Iceland,2018,IS,352,64.145981,-21.9422367
Stavanger,118.61,39.83,80.61,106.09,143.54,118.14,Norway,2018,NO,578,59.1020129,5.712611357275702
Lugano,118.24,52.91,86.73,117.74,122.3,119.86,Switzerland,2018,CH,756,46.0050102,8.9520281
Oslo,117.23,49.28,84.46,112.42,124.09,102.94,Norway,2018,NO,578,59.9133301,10.7389701
Trondheim,114.22,42.39,79.58,103.5,134.76,108.29,Norway,2018,NO,578,63.4305658,10.3951929
Bergen,112.31,40.3,77.58,101.79,119.61,99.29,Norway,2018,NO,578,60.3943055,5.3259192
Kyoto,100.33,24.58,63.8,118.44,54.59,77.92,Japan,2018,JP,392,35.021041,135.7556075
New York,100.0,100.0,100.0,100.0,100.0,100.0,United States,2018,US,840,40.7127281,-74.0060152
Nassau,99.73,40.45,71.14,85.34,104.17,58.69,Bahamas,2018,BS,044,25.0783456,-77.3383331
San Francisco,97.84,115.36,106.29,107.52,91.06,92.96,United States,2018,US,840,37.7790262,-122.419906
Copenhagen,97.62,50.66,74.97,77.53,121.23,113.31,Denmark,2018,DK,208,55.6867243,12.5700724
Luxembourg,95.37,61.59,79.08,82.71,109.61,127.42,Luxembourg,2018,LU,442,49.6112768,6.129799
Anchorage,94.99,40.12,68.53,101.18,84.55,124.92,United States,2018,US,840,61.2163129,-149.894852
Honolulu,94.15,62.82,79.04,104.69,82.86,103.08,United States,2018,US,840,21.2890997,-157.717299
Tokyo,93.81,37.07,66.45,99.67,58.93,106.42,Japan,2018,JP,392,35.6828387,139.7594549
Brooklyn,93.79,76.24,85.33,92.73,100.58,87.04,United States,2018,US,840,40.6526006,-73.9497211
Paris,92.87,50.3,72.34,87.29,91.77,97.62,France,2018,FR,250,48.8588897,2.3200410217200766
Limerick,92.73,27.71,61.37,87.15,82.93,93.93,Ireland,2018,IE,372,52.66833065,-8.66451062242474
Rockville,92.66,64.0,78.84,87.76,74.74,130.79,United States,2018,US,840,39.0817985,-77.1516844
Bloomington,92.14,33.64,63.93,112.83,75.43,96.92,United States,2018,US,840,39.1670396,-86.5342881
Washington,91.94,73.3,82.95,92.74,85.0,120.62,United States,2018,US,840,38.8950368,-77.0365427
Arhus,91.9,34.82,64.37,71.5,102.82,109.47,Denmark,2018,DK,208,56.1496278,10.2134046
Singapore,91.4,71.89,81.99,83.64,64.4,95.89,Singapore,2018,SG,702,1.357107,103.8194992
Aalborg,91.17,26.81,60.13,73.79,101.14,106.35,Denmark,2018,DK,208,57.0462626,9.9215263
Stockholm,90.85,45.27,68.87,84.06,93.71,108.2,Sweden,2018,SE,752,59.3251172,18.0710935
Sydney,90.77,68.43,80.0,85.02,77.09,118.81,Australia,2018,AU,036,-33.8548157,151.2164539
Montpellier,90.63,24.95,58.95,86.93,75.13,74.25,France,2018,FR,250,43.6112422,3.8767337
Tel Aviv-Yafo,90.36,51.55,71.65,76.9,97.21,101.36,Israel,2018,IL,376,32.0852997,34.7818064
Santa Rosa,90.23,58.13,74.75,92.05,78.34,106.77,United States,2018,US,840,38.4404925,-122.7141049
Dublin,89.92,62.13,76.52,73.62,95.64,88.11,Ireland,2018,IE,372,53.3497645,-6.2602732
Jerusalem,89.62,38.43,64.93,74.2,96.35,84.17,Israel,2018,IL,376,31.79592425,35.21198075969497
Linz,89.33,29.43,60.44,84.03,88.05,95.13,Austria,2018,AT,040,48.3059078,14.286198
Arlington,89.2,61.85,76.01,88.51,82.63,120.53,United States,2018,US,840,32.7355816,-97.1071186
Amsterdam,89.14,58.22,74.23,70.13,95.2,101.7,Netherlands,2018,NL,528,52.3727598,4.8936041
Bellevue,88.85,66.67,78.15,88.43,80.99,73.46,United States,2018,US,840,47.6144219,-122.192337
London,88.69,76.67,82.89,67.36,96.36,92.61,United Kingdom,2018,GB,826,51.5073219,-0.1276474
Antwerp,88.2,28.06,59.19,79.12,101.67,90.18,Belgium,2018,BE,056,51.2211097,4.3997081
Hamilton,88.09,26.98,58.62,81.69,84.97,128.21,New Zealand,2018,NZ,554,-37.7878809,175.281788
Seattle,88.04,64.41,76.64,89.85,83.22,144.6,United States,2018,US,840,47.6038321,-122.3300624
Berkeley,87.82,78.69,83.42,97.88,78.29,115.84,United States,2018,US,840,37.8753497,-122.23963364918777
Helsinki,87.77,40.52,64.98,73.82,96.5,113.87,Finland,2018,FI,246,60.1674881,24.9427473
Grenoble,87.73,25.07,57.51,88.71,79.04,115.7,France,2018,FR,250,45.1875602,5.7357819
Seoul,87.56,37.17,63.26,107.06,50.88,107.52,South Korea,2018,KR,Unknown code,37.5666791,126.9782914
Tampere,87.2,28.89,59.08,73.89,96.76,111.28,Finland,2018,FI,246,61.4980214,23.7603118
Boston,87.05,78.72,83.03,88.99,86.2,101.35,United States,2018,US,840,42.3602534,-71.0582912
Auckland,86.93,46.95,67.65,79.21,72.26,99.37,New Zealand,2018,NZ,554,-36.852095,174.7631803
Florence,86.9,31.81,60.34,76.28,87.67,66.09,Italy,2018,IT,380,43.7698712,11.2555757
Nice,86.69,31.64,60.14,78.82,98.75,107.04,France,2018,FR,250,43.7009358,7.2683912
Milton Keynes,86.28,37.34,62.68,85.31,81.71,90.17,United Kingdom,2018,GB,826,52.0429797,-0.7589607
Perth,86.24,40.5,64.18,80.79,90.63,130.38,Australia,2018,AU,036,-31.9558964,115.8605801
Charleston,86.19,45.99,66.8,98.41,71.87,115.41,United States,2018,US,840,32.7876012,-79.9402728
Adelaide,86.02,36.56,62.17,82.05,81.67,113.86,Australia,2018,AU,036,-34.9281805,138.5999312
Miami,86.01,63.2,75.01,87.37,95.81,97.81,United States,2018,US,840,25.7741728,-80.19362
Bath,85.79,37.62,62.56,78.47,83.51,117.98,United Kingdom,2018,GB,826,51.380926349999996,-2.37418971512966
Reading,85.56,40.91,64.03,71.32,95.36,130.18,United Kingdom,2018,GB,826,51.456659,-0.9696512
Leuven,85.31,29.48,58.38,79.81,86.88,92.44,Belgium,2018,BE,056,50.879202,4.7011675
Gent,85.16,26.92,57.07,72.2,94.01,96.27,Belgium,2018,BE,056,51.0538286,3.7250121
Melbourne,85.15,44.81,65.7,82.11,77.29,127.15,Australia,2018,AU,036,-37.8142176,144.9631608
Oakland,85.11,79.57,82.44,88.65,81.38,97.94,United States,2018,US,840,37.8044557,-122.2713563
Milan,85.1,43.65,65.11,75.56,92.27,71.94,Italy,2018,IT,380,45.4641943,9.1896346
Genoa,85.04,21.49,54.39,74.03,83.87,71.66,Italy,2018,IT,380,44.40726,8.9338624
Darwin,84.98,46.52,66.43,82.29,91.79,118.09,Australia,2018,AU,036,-12.46044,130.8410469
Cairns,84.98,30.59,58.75,84.5,74.96,118.05,Australia,2018,AU,036,-16.9206657,145.7721854
The Hague (Den Haag),84.97,35.55,61.14,70.25,89.11,106.25,Netherlands,2018,NL,528,52.0799838,4.3113461
Munich,84.78,46.46,66.3,72.97,82.46,118.19,Germany,2018,DE,276,48.1371079,11.5753822
Lyon,84.47,28.04,57.26,77.74,79.13,101.17,France,2018,FR,250,45.7578137,4.8320114
Gothenburg,84.38,30.46,58.38,77.45,91.06,112.1,Sweden,2018,SE,752,57.7072326,11.9670171
New Haven,84.13,47.53,66.48,92.86,86.18,127.41,United States,2018,US,840,41.3082138,-72.9250518
Irvine,83.73,66.26,75.3,89.49,76.5,139.48,United States,2018,US,840,33.6856969,-117.8259819
Brussels,83.65,35.76,60.55,72.55,96.1,104.35,Belgium,2018,BE,056,50.8465573,4.351697
Philadelphia,83.46,48.09,66.4,82.24,79.37,116.06,United States,2018,US,840,39.9527237,-75.1635262
Utrecht,83.34,40.23,62.55,68.39,97.89,105.9,Netherlands,2018,NL,528,52.080985600000005,5.12768396945229
Aberdeen,83.18,32.13,58.56,67.23,99.29,115.94,United Kingdom,2018,GB,826,57.1482429,-2.0928095
Cambridge,82.96,47.33,65.78,67.22,95.67,105.39,United Kingdom,2018,GB,826,52.2055314,0.1186637
Cork,82.89,39.97,62.19,67.32,91.87,105.57,Ireland,2018,IE,372,51.897077,-8.4654674
Hobart,82.88,31.46,58.08,81.1,88.26,99.4,Australia,2018,AU,036,-42.8825088,147.3281233
San Jose,82.87,81.81,82.36,85.4,83.12,134.82,United States,2018,US,840,37.3361905,-121.890583
Toulouse,82.85,24.97,54.94,77.86,82.38,113.77,France,2018,FR,250,43.6044622,1.4442469
Ramat Gan,82.84,36.93,60.7,67.32,89.36,112.25,Israel,2018,IL,376,32.0686867,34.8246812
Rotterdam,82.64,35.28,59.8,63.02,94.81,102.03,Netherlands,2018,NL,528,51.9244424,4.47775
Tacoma,82.54,36.82,60.49,88.02,72.46,125.1,United States,2018,US,840,47.2495798,-122.4398746
Dusseldorf,82.48,36.34,60.23,65.69,74.97,114.5,Germany,2018,DE,276,51.2254018,6.7763137
Los Angeles,82.3,68.75,75.77,82.73,82.48,109.01,United States,2018,US,840,34.0536909,-118.242766
Boulder,82.19,53.8,68.5,86.22,74.92,143.02,United States,2018,US,840,40.0149856,-105.270545
St. John's,82.18,22.48,53.39,86.39,79.73,98.06,United States,2018,US,840,34.1832936,-118.56165105077756
Turku,82.18,25.55,54.87,69.79,88.89,125.14,Finland,2018,FI,246,60.4517531,22.2670522
Brisbane,82.17,43.31,63.43,75.42,81.39,130.41,Australia,2018,AU,036,-27.4689682,153.0234991
Halifax,82.03,29.33,56.61,88.57,75.91,95.7,Canada,2018,CA,124,44.648618,-63.5859487
Thunder Bay,81.98,26.2,55.08,77.76,74.63,84.87,Canada,2018,CA,124,48.406414,-89.259796
Haifa,81.81,20.68,52.33,66.6,91.38,120.61,Israel,2018,IL,376,32.8191218,34.9983856
Padova,81.77,23.89,53.85,67.49,78.91,77.42,Italy,2018,IT,380,45.4077172,11.8734455
Frankfurt,81.65,37.59,60.4,66.85,81.18,142.76,Germany,2018,DE,276,50.1106444,8.6820917
Portland,81.6,40.73,61.89,86.96,88.58,113.69,United States,2018,US,840,45.5202471,-122.6741949
Minneapolis,81.46,45.65,64.19,87.48,75.88,131.08,United States,2018,US,840,44.9772995,-93.2654692
Norfolk,81.36,43.59,63.14,90.06,81.31,64.42,United States,2018,US,840,36.8968052,-76.2602336
Saskatoon,81.02,29.7,56.27,82.39,72.78,99.63,Canada,2018,CA,124,52.131802,-106.660767
Canberra,80.9,45.03,63.6,77.06,79.23,139.38,Australia,2018,AU,036,-35.2975906,149.1012676
Wellington,80.87,40.42,61.36,77.17,72.02,118.59,New Zealand,2018,NZ,554,-41.2887953,174.7772114
Hartford,80.86,42.15,62.19,78.41,86.26,101.57,United States,2018,US,840,41.764582,-72.6908547
Queens,80.77,64.73,73.04,74.39,87.27,113.4,United States,2018,US,840,40.7135078,-73.8283132
Hamburg,80.75,33.61,58.02,64.85,77.19,116.06,Germany,2018,DE,276,53.550341,10.000654
Parma,80.69,25.04,53.85,71.96,87.4,84.79,Italy,2018,IT,380,44.8013678,10.3280833
Maastricht,80.69,33.35,57.86,70.13,81.68,105.35,Netherlands,2018,NL,528,50.85798545,5.6969881818221095
Graz,80.59,24.94,53.75,78.18,65.21,106.41,Austria,2018,AT,040,47.0708678,15.4382786
Christchurch,80.51,30.13,56.21,75.7,78.95,90.4,New Zealand,2018,NZ,554,-43.530955,172.6366455
Galway,80.22,34.58,58.21,70.9,81.75,100.11,Ireland,2018,IE,372,53.2744122,-9.0490601
Albany,80.19,30.82,56.38,83.35,71.86,139.34,United States,2018,US,840,42.6511674,-73.754968
Chicago,80.16,56.71,68.85,79.14,77.99,119.17,United States,2018,US,840,41.8755616,-87.6244212
Portsmouth,80.05,32.23,56.99,62.19,89.21,94.57,United Kingdom,2018,GB,826,50.8036831,-1.075614
Jersey City,79.91,66.0,73.2,79.5,85.95,130.99,United States,2018,US,840,40.7215682,-74.047455
Malmo,79.79,28.57,55.09,73.61,87.62,120.92,Sweden,2018,SE,752,55.6052931,13.0001566
Uppsala,79.7,28.42,54.97,70.45,87.61,119.75,Sweden,2018,SE,752,59.8586126,17.6387436
Lund,79.39,27.07,54.16,75.3,80.06,122.8,Sweden,2018,SE,752,55.7029296,13.1929449
Oxford,79.37,53.29,66.79,62.18,81.92,86.68,United Kingdom,2018,GB,826,51.7520131,-1.2578499
Olympia,79.25,36.06,58.42,77.18,78.7,125.04,United States,2018,US,840,47.0451022,-122.8950075
Edinburgh,79.2,34.6,57.69,69.3,89.29,104.25,United Kingdom,2018,GB,826,55.9533456,-3.1883749
Barrie,79.18,28.03,54.51,79.85,76.95,127.57,Canada,2018,CA,124,44.3893113,-79.6901736
Santa Barbara,79.17,71.45,75.45,76.47,87.43,134.38,United States,2018,US,840,34.4221319,-119.7026673
Bologna,79.04,26.08,53.5,70.14,85.23,76.44,Italy,2018,IT,380,44.4938203,11.3426327
Eugene,78.94,31.38,56.0,91.86,69.07,109.06,United States,2018,US,840,44.0505054,-123.0950506
Sliema,78.94,36.17,58.32,69.3,89.2,74.89,Malta,2018,MT,470,35.9127609,14.5020708
Burlington,78.89,41.89,61.05,82.04,79.41,101.19,United States,2018,US,840,44.4761601,-73.212906
Rome,78.8,40.24,60.2,68.34,85.32,72.78,Italy,2018,IT,380,41.8933203,12.4829321
Sacramento,78.75,43.34,61.67,80.02,74.2,135.14,United States,2018,US,840,38.5810606,-121.493895
Eindhoven,78.72,35.2,57.73,63.05,88.51,119.87,Netherlands,2018,NL,528,51.4392648,5.478633
Hong Kong,78.72,79.54,79.12,83.47,56.17,82.86,Hong Kong,2018,HK,344,22.2793278,114.1628131
Pittsburgh,78.66,39.02,59.54,76.56,70.89,133.38,United States,2018,US,840,40.4416941,-79.9900861
Vienna,78.64,35.04,57.61,73.8,73.39,98.88,Austria,2018,AT,040,48.2083537,16.3725042
Osaka,78.5,23.88,52.16,79.2,45.06,109.62,Japan,2018,JP,392,34.6198813,135.490357
Portland,78.45,51.72,65.56,79.56,68.4,125.57,United States,2018,US,840,45.5202471,-122.6741949
Saint Paul,78.37,40.38,60.05,81.15,74.68,97.64,United States,2018,US,840,44.9497487,-93.0931028
Lille,78.34,24.7,52.47,65.77,74.43,89.56,France,2018,FR,250,50.6365654,3.0635282
Long Beach,78.23,54.98,67.01,82.77,76.98,127.25,United States,2018,US,840,33.7690164,-118.191604
York,77.98,29.69,54.69,68.51,85.11,110.55,United Kingdom,2018,GB,826,53.9590555,-1.0815361
Trieste,77.97,21.54,50.76,72.67,80.97,90.05,Italy,2018,IT,380,45.6496485,13.7772781
Brampton,77.9,29.01,54.32,83.61,64.25,103.74,Canada,2018,CA,124,43.6858146,-79.7599337
Bristol,77.83,40.01,59.59,63.13,92.62,108.18,United Kingdom,2018,GB,826,51.47091115,-2.5790334025708415
Bergamo,77.71,22.05,50.87,64.43,91.76,89.37,Italy,2018,IT,380,45.756655699999996,9.754219200862249
Fort Lauderdale,77.67,51.63,65.11,79.05,77.85,104.35,United States,2018,US,840,26.1223084,-80.1433786
Everett,77.63,42.48,60.68,84.84,70.29,113.75,United States,2018,US,840,47.9673056,-122.201399
Asheville,77.36,37.85,58.31,84.94,72.18,111.73,United States,2018,US,840,35.6009498,-82.5540161
Denver,77.31,54.0,66.07,77.48,79.43,130.1,United States,2018,US,840,39.7392364,-104.9848623
Heidelberg,77.3,37.21,57.96,61.01,75.28,133.23,Germany,2018,DE,276,49.4093582,8.694724
Manchester,77.15,30.87,54.83,63.07,85.92,98.91,United Kingdom,2018,GB,826,53.4794892,-2.2451148
Bellingham,77.13,34.7,56.67,79.09,77.88,131.14,United States,2018,US,840,48.7544012,-122.478836
Newcastle,77.12,43.45,60.88,76.5,84.01,134.62,Australia,2018,AU,036,-32.9192953,151.7795348
Melbourne,77.09,29.38,54.08,85.53,77.04,128.34,United States,2018,US,840,28.106471,-80.6371513
San Diego,77.01,61.91,69.73,75.09,82.09,142.72,United States,2018,US,840,32.7174202,-117.1627728
Mannheim,76.97,27.25,52.99,61.07,73.5,156.77,Germany,2018,DE,276,49.4892913,8.4673098
Groningen,76.64,30.91,54.59,66.99,87.82,105.46,Netherlands,2018,NL,528,53.2190652,6.5680077
New Orleans,76.64,40.21,59.07,75.15,84.0,116.56,United States,2018,US,840,29.9759983,-90.0782127
Orlando,76.63,37.35,57.68,82.77,69.38,129.02,United States,2018,US,840,28.5421109,-81.3790304
Baltimore,76.57,45.03,61.36,73.92,80.16,116.79,United States,2018,US,840,39.2908816,-76.610759
Tampa,76.53,42.09,59.92,80.64,80.21,144.43,United States,2018,US,840,27.9477595,-82.458444
West Palm Beach,76.52,43.11,60.41,79.59,78.92,124.36,United States,2018,US,840,26.715364,-80.0532942
Calgary,76.44,31.37,54.7,72.97,75.23,146.39,Canada,2018,CA,124,51.0460954,-114.065465
Brighton,76.4,44.89,61.21,58.61,86.71,83.51,United Kingdom,2018,GB,826,50.8389149,-0.12693017575934035
Red Deer,76.15,25.51,51.73,69.85,74.21,136.55,Canada,2018,CA,124,52.2697395,-113.8181766
Edmonton,76.01,31.61,54.6,74.26,73.66,131.93,Canada,2018,CA,124,53.535411,-113.507996
Nottingham,75.98,24.8,51.3,65.92,75.29,107.61,United Kingdom,2018,GB,826,52.9534193,-1.1496461
Karlsruhe,75.8,23.89,50.76,57.26,80.6,136.82,Germany,2018,DE,276,49.0068705,8.4034195
Coventry,75.72,26.45,51.96,64.04,71.27,133.86,United Kingdom,2018,GB,826,52.4081812,-1.510477
Vancouver,75.59,53.5,64.94,78.26,70.12,96.77,Canada,2018,CA,124,49.2608724,-123.113952
Victoria,75.47,40.0,58.36,79.13,70.56,112.52,Canada,2018,CA,124,48.4283182,-123.3649533
Colorado Springs,75.42,31.21,54.1,72.93,76.48,150.89,United States,2018,US,840,38.8339578,-104.825348
Norwich,75.4,25.34,51.26,58.53,81.1,89.95,United Kingdom,2018,GB,826,52.6285694,1.2923049
Charlotte,75.35,40.62,58.6,79.4,73.87,112.72,United States,2018,US,840,35.2272086,-80.8430827
Plano,75.32,40.02,58.3,73.93,63.49,101.69,United States,2018,US,840,33.0136764,-96.6925096
Toronto,75.22,46.94,61.58,70.65,71.58,106.83,Canada,2018,CA,124,43.6534817,-79.3839347
Atlanta,74.97,45.83,60.92,75.0,74.81,153.77,United States,2018,US,840,33.7489924,-84.3902644
Turin,74.94,23.25,50.01,61.62,76.26,85.62,Italy,2018,IT,380,45.0677551,7.6824892
Leeds,74.92,30.31,53.41,61.69,91.99,109.59,United Kingdom,2018,GB,826,53.7974185,-1.5437941
Fayetteville,74.9,24.85,50.76,81.39,69.15,104.92,United States,2018,US,840,36.0625843,-94.1574328
Gold Coast,74.89,38.76,57.46,74.88,72.35,124.98,Australia,2018,AU,036,-28.0023731,153.4145987
Kelowna,74.78,34.84,55.52,77.54,68.9,109.75,Canada,2018,CA,124,49.8879177,-119.4959025
Indianapolis,74.72,35.67,55.89,73.92,74.26,94.22,United States,2018,US,840,39.7683331,-86.1583502
Birmingham,74.64,31.36,53.77,76.12,74.13,134.55,United States,2018,US,840,33.5206824,-86.8024326
Stuttgart,74.53,34.86,55.4,55.57,72.07,134.02,Germany,2018,DE,276,48.7784485,9.1800132
Berlin,74.32,33.54,54.65,60.74,65.57,114.09,Germany,2018,DE,276,52.5186925,13.3996024
Burlington,74.32,34.2,54.97,68.68,82.63,137.47,Canada,2018,CA,124,43.3248924,-79.7966835
Sheffield,74.31,25.05,50.55,56.87,84.47,110.96,United Kingdom,2018,GB,826,53.3806626,-1.4702278
Glasgow,74.3,28.12,52.03,61.85,79.52,124.11,United Kingdom,2018,GB,826,55.8609825,-4.2488787
Augusta,74.29,22.45,49.29,82.42,62.66,100.38,United States,2018,US,840,33.4709714,-81.9748429
Greensboro,74.1,26.05,50.93,80.28,62.04,141.87,United States,2018,US,840,36.0726355,-79.7919754
Greenville,74.08,36.03,55.73,83.74,67.18,127.49,United States,2018,US,840,34.851354,-82.3984882
Palma De Mallorca,74.08,24.4,50.12,62.9,71.61,80.26,Spain,2018,ES,724,39.5695818,2.6500745
Cologne,74.02,29.75,52.67,55.97,73.95,131.06,Germany,2018,DE,276,50.938361,6.959974
Bonn,73.61,29.24,52.21,55.0,70.68,118.12,Germany,2018,DE,276,50.735851,7.10066
Jacksonville,73.58,32.27,53.66,77.14,73.25,117.13,United States,2018,US,840,30.3321838,-81.655651
Fort Collins,73.57,42.07,58.38,81.45,61.31,73.23,United States,2018,US,840,40.5508527,-105.0668085
Cleveland,73.47,28.35,51.71,67.52,74.7,146.27,United States,2018,US,840,41.4996562,-81.6936813
Bremen,73.41,22.22,48.72,59.15,70.25,131.14,Germany,2018,DE,276,53.0758196,8.8071646
Milwaukee,73.37,35.5,55.11,71.9,71.59,139.23,United States,2018,US,840,43.0349931,-87.922497
Bilbao,73.3,30.28,52.55,65.27,75.33,92.96,Spain,2018,ES,724,43.2630018,-2.9350039
Saint Petersburg,73.29,41.01,57.72,72.82,75.33,145.31,United States,2018,US,840,27.7703796,-82.6695085
Exeter,73.17,31.86,53.24,58.28,82.78,86.66,United Kingdom,2018,GB,826,50.7255794,-3.5269497
Memphis,72.95,27.52,51.04,73.96,70.71,154.91,United States,2018,US,840,35.1490215,-90.0516285
Guelph,72.93,28.86,51.68,68.86,80.08,114.41,Canada,2018,CA,124,43.5460516,-80.2493276
Syracuse,72.88,30.77,52.57,72.26,67.76,103.63,United States,2018,US,840,43.0481221,-76.1474244
Waterloo,72.86,29.64,52.01,70.36,70.2,120.38,Canada,2018,CA,124,43.4652699,-80.5222961
Regina,72.85,28.93,51.67,73.25,66.3,109.12,Canada,2018,CA,124,50.44876,-104.61731
Newark,72.68,40.31,57.07,66.47,77.87,94.1,United States,2018,US,840,40.735657,-74.1723667
Akron,72.65,21.57,48.02,77.33,63.79,99.21,United States,2018,US,840,41.083064,-81.518485
Dubai,72.58,66.88,69.83,61.71,67.23,123.71,United Arab Emirates,2018,AE,784,25.2653471,55.2924914
Nuremberg,72.57,25.08,49.67,55.83,71.58,127.52,Germany,2018,DE,276,49.453872,11.077298
Mississauga,72.54,36.65,55.23,68.46,67.15,106.67,Canada,2018,CA,124,43.5896231,-79.6443879
Austin,72.46,49.8,61.53,73.02,75.56,140.39,United States,2018,US,840,30.2711286,-97.7436995
Leipzig,72.4,20.19,47.22,54.51,64.82,91.69,Germany,2018,DE,276,51.3406321,12.3747329
Taipei,72.39,21.61,47.9,87.57,34.77,104.9,Taiwan,2018,TW,Unknown code,25.0375198,121.5636796
Fresno,72.36,30.94,52.38,72.51,75.89,110.71,United States,2018,US,840,36.7394421,-119.7848307
Buffalo,72.15,28.94,51.31,69.14,72.72,120.23,United States,2018,US,840,42.8867166,-78.8783922
Shreveport,72.07,25.24,49.48,78.42,64.04,76.03,United States,2018,US,840,32.5221828,-93.7651944
Windsor,72.0,21.38,47.59,63.4,67.16,118.85,Canada,2018,CA,124,42.317099,-83.0353434
Nanaimo,71.9,25.11,49.33,78.03,63.87,99.07,United States,2018,US,840,46.9762152,-71.3992051
Nashville,71.88,47.73,60.23,74.28,69.38,125.4,United States,2018,US,840,36.1622767,-86.7742984
Aachen,71.81,24.48,48.99,57.78,64.67,128.79,Germany,2018,DE,276,50.776351,6.083862
Moncton,71.79,18.63,46.15,70.92,66.98,88.06,Canada,2018,CA,124,46.097995,-64.80011
Birmingham,71.6,29.57,51.33,57.06,79.83,106.25,United Kingdom,2018,GB,826,52.4796992,-1.9026911
Cardiff,71.52,28.32,50.69,65.68,72.66,109.78,United Kingdom,2018,GB,826,51.4816546,-3.1791934
Southampton,71.48,33.09,52.97,58.97,76.0,116.26,United Kingdom,2018,GB,826,50.9025349,-1.404189
Manchester,71.46,33.61,53.2,76.26,72.86,124.75,United States,2018,US,840,42.9956397,-71.4547891
Raleigh,71.4,37.42,55.02,78.32,70.58,131.99,United States,2018,US,840,35.7803977,-78.6390989
Little Rock,71.29,24.83,48.89,77.24,64.98,132.31,United States,2018,US,840,34.7465071,-92.2896267
Dresden,71.22,22.95,47.94,56.07,59.77,105.93,Germany,2018,DE,276,51.0493286,13.7381437
Winnipeg,71.22,24.91,48.89,69.49,67.33,114.61,Canada,2018,CA,124,49.8955367,-97.1384584
Quebec City,71.21,17.97,45.53,71.69,65.29,118.31,Canada,2018,CA,124,46.8137431,-71.2084061
Naples,71.14,19.85,46.41,66.45,63.1,59.99,Italy,2018,IT,380,40.8358846,14.2487679
Richmond,70.98,36.18,54.2,77.66,65.74,133.08,United States,2018,US,840,37.5385087,-77.43428
Las Vegas,70.97,29.98,51.2,66.54,74.53,148.81,United States,2018,US,840,36.1672559,-115.148516
Saint Louis,70.76,30.11,51.15,71.33,68.14,144.7,United States,2018,US,840,38.6264256,-90.1995853
Grand Rapids,70.58,32.95,52.43,69.69,70.77,143.87,United States,2018,US,840,42.9632405,-85.6678639
Rochester,70.52,30.31,51.13,72.96,74.66,158.71,United States,2018,US,840,43.157285,-77.615214
Houston,70.37,44.1,57.7,71.01,71.15,145.38,United States,2018,US,840,29.7589382,-95.3676974
Detroit,70.2,35.48,53.45,67.02,59.3,131.62,United States,2018,US,840,42.3315509,-83.0466403
Darmstadt,70.17,30.69,51.13,53.91,66.6,145.86,Germany,2018,DE,276,49.872775,8.651177
Ann Arbor,70.01,45.26,58.07,69.31,62.97,163.57,United States,2018,US,840,42.2681569,-83.7312291
Ottawa,69.91,31.76,51.51,64.16,71.95,145.32,Canada,2018,CA,124,45.4211435,-75.6900574
Harrisburg,69.91,27.78,49.59,72.58,66.41,140.56,United States,2018,US,840,40.2663107,-76.8861122
Newcastle Upon Tyne,69.91,25.69,48.58,54.05,78.46,127.4,United Kingdom,2018,GB,826,54.9738474,-1.6131572
Salem,69.81,32.0,51.58,70.61,68.39,106.58,United States,2018,US,840,44.9391565,-123.033121
Dayton,69.76,21.96,46.71,73.53,62.38,114.2,United States,2018,US,840,39.7589478,-84.1916069
Barcelona,69.75,33.71,52.37,59.29,65.07,77.27,Spain,2018,ES,724,41.3828939,2.1774322
Columbia,69.7,29.48,50.3,75.37,65.65,92.47,United States,2018,US,840,34.0007493,-81.0343313
Marseille,69.66,23.92,47.6,61.91,69.58,104.22,France,2018,FR,250,43.2961743,5.3699525
Liverpool,69.53,24.96,48.04,52.24,78.55,116.18,United Kingdom,2018,GB,826,53.4071991,-2.99168
Hanover,69.47,22.04,46.59,58.88,64.04,160.86,Germany,2018,DE,276,52.3744779,9.7385532
Fort Wayne,69.42,21.43,46.28,74.49,69.24,129.87,United States,2018,US,840,41.0799898,-85.1386015
London,69.39,24.58,47.78,65.97,66.17,105.79,Canada,2018,CA,124,42.9832406,-81.243372
Des Moines,69.37,31.23,50.97,73.45,63.64,125.85,United States,2018,US,840,41.5910323,-93.6046655
Virginia Beach,69.33,37.42,53.94,68.92,71.08,151.73,United States,2018,US,840,36.8529841,-75.9774183
Spokane,69.26,26.97,48.86,70.06,64.46,135.55,United States,2018,US,840,47.6571934,-117.4235106
Bakersfield,69.2,29.09,49.86,71.91,64.38,120.54,United States,2018,US,840,35.3738712,-119.0194639
Montreal,69.18,26.68,48.69,68.65,67.17,120.29,Canada,2018,CA,124,45.5031824,-73.5698065
Gatineau,69.17,19.72,45.32,69.98,64.66,142.51,Canada,2018,CA,124,45.4841214,-75.6813728
Columbus,69.13,35.51,52.92,66.96,62.16,125.47,United States,2018,US,840,39.9622601,-83.0007065
Cincinnati,69.13,31.11,50.79,61.6,70.4,136.92,United States,2018,US,840,39.1014537,-84.5124602
Kansas City,69.05,29.33,49.89,68.17,63.04,135.76,United States,2018,US,840,39.100105,-94.5781416
Belfast,68.77,23.7,47.04,61.07,79.19,103.27,United Kingdom,2018,GB,826,54.596391,-5.9301829
San Juan,68.77,26.09,48.18,66.18,57.67,116.19,Puerto Rico,2018,PR,630,18.465299,-66.116666
Derby,68.68,21.48,45.92,58.52,71.55,110.83,United Kingdom,2018,GB,826,52.9212617,-1.4761491
Lincoln,68.61,28.38,49.21,71.56,62.02,124.13,United States,2018,US,840,40.8088861,-96.7077751
Malta,68.44,26.6,48.26,54.11,69.0,72.13,Malta,2018,MT,470,35.8885993,14.4476911
Fort Myers,68.06,31.9,50.62,71.88,62.43,86.87,United States,2018,US,840,26.640628,-81.8723084
Lexington,67.9,25.51,47.45,69.03,62.48,130.77,United States,2018,US,840,38.0464066,-84.4970393
Fort Worth,67.81,35.29,52.12,66.57,65.5,142.22,United States,2018,US,840,32.753177,-97.3327459
Omaha,67.8,30.43,49.78,69.41,62.64,134.51,United States,2018,US,840,41.2587459,-95.9383758
Vancouver,67.79,34.12,51.55,61.12,67.28,127.95,United States,2018,US,840,45.6306954,-122.6744557
Madrid,67.63,33.41,51.13,56.59,70.41,96.36,Spain,2018,ES,724,40.4167047,-3.7035825
Surrey,67.37,33.36,50.97,65.23,61.6,93.78,Canada,2018,CA,124,49.1913033,-122.8491439
Montevideo,67.18,21.14,44.97,54.33,70.89,35.71,Uruguay,2018,UY,858,-34.9058916,-56.1913095
Wichita,67.02,24.63,46.58,67.02,68.1,118.39,United States,2018,US,840,37.6922361,-97.3375448
Lubbock,66.9,24.63,46.52,61.64,68.94,133.25,United States,2018,US,840,33.5635206,-101.879336
Chattanooga,66.89,27.77,48.02,67.8,62.68,145.27,United States,2018,US,840,35.0457219,-85.3094883
Phoenix,66.87,33.32,50.69,62.4,71.42,139.29,United States,2018,US,840,33.4484367,-112.074141
Sioux Falls,66.85,25.7,47.0,69.13,56.18,168.93,United States,2018,US,840,43.5460587,-96.7313928
Salt Lake City,66.76,34.91,51.4,64.48,68.75,148.6,United States,2018,US,840,40.7596198,-111.8867975
Tulsa,66.71,28.61,48.34,67.6,62.03,123.2,United States,2018,US,840,36.1556805,-95.9929113
Durham,66.44,35.54,51.54,64.75,67.79,146.95,United States,2018,US,840,35.996653,-78.9018053
Springfield,66.4,18.79,43.44,73.6,63.28,77.68,United States,2018,US,840,39.7990175,-89.6439575
Winston-salem,66.27,24.96,46.34,71.92,69.63,117.44,United States,2018,US,840,36.0998131,-80.2440518
Nicosia,66.23,17.22,42.59,53.67,78.46,90.59,Cyprus,2018,CY,196,35.1748976,33.3638568
Doha,66.12,66.84,66.46,57.95,65.81,120.86,Qatar,2018,QA,634,25.2856329,51.5264162
Taichung,65.98,13.0,40.43,84.29,29.75,66.76,Taiwan,2018,TW,Unknown code,24.163162,120.6478282
Dallas,65.94,42.64,54.7,61.95,67.11,162.37,United States,2018,US,840,32.7762719,-96.7968559
Albuquerque,65.73,25.5,46.33,68.04,64.58,123.57,United States,2018,US,840,35.0841034,-106.650985
Arlington,65.63,30.04,48.47,62.02,63.87,152.9,United States,2018,US,840,32.7355816,-97.1071186
Madison,65.6,36.95,51.78,62.5,66.34,144.83,United States,2018,US,840,43.074761,-89.3837613
Ljubljana,65.47,20.62,43.84,54.76,57.7,74.7,Slovenia,2018,SI,705,46.0500268,14.5069289
Zaragoza (Saragossa),65.4,15.21,41.2,54.76,60.66,77.87,Spain,2018,ES,724,41.6521342,-0.8809428
Mobile,65.31,24.63,45.69,67.4,64.09,122.2,United States,2018,US,840,30.6943566,-88.0430541
Hamilton,65.26,27.6,47.1,60.77,65.83,122.71,Canada,2018,CA,124,43.2560802,-79.8728583
Louisville,65.14,28.33,47.39,65.76,65.91,127.21,United States,2018,US,840,38.2542376,-85.759407
Beirut,65.03,34.98,50.54,47.46,66.58,52.68,Lebanon,2018,LB,422,33.88922645,35.50255852895232
Abu Dhabi,64.97,64.25,64.62,54.3,65.93,131.24,United Arab Emirates,2018,AE,784,24.4538352,54.3774014
Thessaloniki,64.94,11.57,39.2,52.32,61.77,48.72,Greece,2018,GR,300,40.6403167,22.9352716
Pensacola,64.88,28.72,47.44,62.12,64.75,128.73,United States,2018,US,840,30.421309,-87.2169149
Athens,64.67,13.97,40.22,51.34,64.82,52.86,Greece,2018,GR,300,37.9839412,23.7283052
Oklahoma City,64.29,26.54,46.09,66.52,58.15,142.4,United States,2018,US,840,35.4729886,-97.5170536
Kitchener,63.9,27.36,46.28,58.85,59.89,124.25,Canada,2018,CA,124,43.451291,-80.4927815
Limassol,63.52,24.22,44.57,52.24,66.53,93.12,Cyprus,2018,CY,196,34.6852901,33.0332657
Huntsville,63.34,27.45,46.03,64.13,63.83,152.26,United States,2018,US,840,34.729847,-86.5859011
Tucson,63.0,23.8,44.1,61.12,63.64,138.07,United States,2018,US,840,32.2228765,-110.9748477
Reno,62.88,35.99,49.92,58.04,64.1,136.4,United States,2018,US,840,39.5261206,-119.8126581
Havana,62.74,12.01,38.27,41.43,28.23,1.88,Cuba,2018,CU,192,23.135305,-82.3589631
Boise,62.65,28.91,46.37,58.7,65.39,130.86,United States,2018,US,840,43.6166163,-116.200886
Knoxville,62.18,29.77,46.55,60.36,64.67,128.69,United States,2018,US,840,35.9603948,-83.9210261
Accra,61.93,32.3,47.64,60.07,40.1,14.07,Ghana,2018,GH,288,5.5571096,-0.2012376
College Station,61.85,32.7,47.79,68.95,57.12,118.7,United States,2018,US,840,30.5955289,-96.3071042
Martin,61.04,20.8,41.63,56.66,51.89,44.36,Slovakia,2018,SK,703,49.0724921,18.929193
San Antonio,60.92,34.5,48.18,58.17,60.96,154.92,United States,2018,US,840,29.4246002,-98.4951405
Athens,60.55,26.67,44.21,57.85,59.58,110.52,United States,2018,US,840,33.9597677,-83.376398
Tallinn,60.51,17.66,39.84,45.31,61.04,74.02,Estonia,2018,EE,233,59.4372155,24.7453688
San Jose,60.46,19.28,40.6,60.98,49.47,48.89,Costa Rica,2018,CR,188,9.9325427,-84.0795782
Valencia,60.33,20.61,41.17,50.92,56.84,90.71,Spain,2018,ES,724,39.4697065,-0.3763353
Kaohsiung,60.22,10.41,36.2,71.17,26.25,127.49,Taiwan,2018,TW,Unknown code,22.6203348,120.3120375
Sevilla,60.16,21.15,41.35,52.11,58.14,81.43,Spain,2018,ES,724,37.3886303,-5.9953403
Larnaca,59.97,11.36,36.53,49.72,66.8,83.19,Cyprus,2018,CY,196,34.9236095,33.6236184
Sharjah,59.38,29.86,45.15,50.37,43.99,123.32,United Arab Emirates,2018,AE,784,25.3461498,55.4210633
Split,59.05,13.74,37.2,50.46,55.16,53.22,Croatia,2018,HR,191,43.5116383,16.4399659
Manama,59.0,30.65,45.33,57.63,54.83,67.56,Bahrain,2018,BH,048,26.2235041,50.5822436
Rijeka,58.54,12.29,36.24,49.63,46.7,51.41,Croatia,2018,HR,191,45.3271752,14.4412309
Amman,58.47,14.58,37.3,49.55,55.56,41.83,Jordan,2018,JO,400,31.9515694,35.9239625
Zagreb,58.0,15.39,37.45,49.52,46.65,64.19,Croatia,2018,HR,191,45.8131847,15.9771774
Lisbon,57.69,29.33,44.01,47.02,50.14,58.48,Portugal,2018,PT,620,38.7077507,-9.1365919
Patras,57.35,9.41,34.23,46.44,53.51,64.63,Greece,2018,GR,300,38.246242,21.7350847
Panama City,57.23,32.46,45.29,56.48,52.95,38.24,Panama,2018,PA,591,30.1600827,-85.6545729
Malaga,57.23,21.19,39.85,48.93,55.28,94.71,Spain,2018,ES,724,36.7213028,-4.4216366
Campinas,57.21,14.1,36.42,43.15,48.2,59.53,Brazil,2018,BR,076,-22.90556,-47.06083
Rio De Janeiro,57.14,21.61,40.0,42.19,48.58,39.15,Brazil,2018,BR,076,-22.9110137,-43.2093727
Funchal,57.0,17.91,38.15,47.03,44.3,52.72,Portugal,2018,PT,620,32.6496497,-16.9086783
Santiago,56.85,17.85,38.04,48.15,55.32,50.65,Chile,2018,CL,152,-33.4377756,-70.6504502
Sao Paulo,56.83,21.02,39.56,43.58,48.59,40.03,Brazil,2018,BR,076,-23.5506507,-46.6333824
Shanghai,56.16,41.95,49.3,61.7,40.74,66.16,China,2018,CN,156,31.2322758,121.4692071
Buenos Aires,56.05,15.58,36.53,48.19,56.51,60.03,Argentina,2018,AR,032,-34.6075682,-58.4370894
Bangkok,55.79,26.21,41.52,62.4,27.99,44.94,Thailand,2018,TH,764,13.7525438,100.4934734
Makati,55.54,26.91,41.73,59.97,28.91,46.37,Philippines,2018,PH,608,14.5567949,121.0211226
Tartu,55.49,14.44,35.69,42.41,55.7,75.23,Estonia,2018,EE,233,58.3801207,26.72245
Porto,54.92,20.87,38.5,45.79,44.12,63.31,Portugal,2018,PT,620,41.1494512,-8.6107884
Riga,54.87,15.23,35.75,42.56,51.15,53.77,Latvia,2018,LV,428,56.9493977,24.1051846
Coimbra,54.5,14.58,35.25,46.39,42.38,75.56,Portugal,2018,PT,620,40.2111931,-8.4294632
Granada,54.47,14.9,35.39,44.63,51.02,94.61,Spain,2018,ES,724,37.1734995,-3.5995337
Vilnius,54.26,17.9,36.72,42.58,49.97,56.97,Lithuania,2018,LT,440,54.6870458,25.2829111
Porto Alegre,53.88,14.79,35.03,42.32,42.19,46.35,Brazil,2018,BR,076,-30.0324999,-51.2303767
Brasilia,53.84,16.73,35.94,44.65,47.74,49.33,Brazil,2018,BR,076,-10.3333333,-53.2
Prague,53.84,25.06,39.96,47.04,40.31,77.13,Czech Republic,2018,CZ,Unknown code,50.0874654,14.4212535
Bratislava,53.64,22.87,38.8,46.54,44.37,72.75,Slovakia,2018,SK,703,48.1516988,17.1093063
Santa Cruz De Tenerife,53.34,18.05,36.32,44.56,53.88,93.75,Spain,2018,ES,724,28.469648,-16.2540884
Pretoria,53.19,15.59,35.06,43.22,47.05,108.14,South Africa,2018,ZA,710,-25.7459277,28.1879101
Phuket,53.17,14.65,34.59,57.38,27.69,55.31,Thailand,2018,TH,764,7.9366015,98.3529292
Las Palmas,52.71,20.09,36.98,44.95,51.06,84.11,Spain,2018,ES,724,28.1288694,-15.4349015
Kaunas,52.56,12.38,33.19,41.09,45.84,57.97,Lithuania,2018,LT,440,54.8982139,23.9044817
Recife,52.22,12.23,32.93,41.22,41.58,39.68,Brazil,2018,BR,076,-8.0584933,-34.8848193
Klaipeda,52.09,11.61,32.57,43.52,46.6,58.53,Lithuania,2018,LT,440,55.7127529,21.1350469
Fortaleza,52.0,9.81,31.65,43.69,38.32,30.52,Brazil,2018,BR,076,-3.7304512,-38.5217989
Windhoek,51.84,23.11,37.98,47.76,43.74,55.51,Namibia,2018,NA,516,-22.5743922,17.0790688
Moscow,51.82,34.1,43.27,40.9,56.03,59.58,Russia,2018,RU,Unknown code,55.7504461,37.6174943
Braga,51.43,12.28,32.55,42.67,36.9,71.62,Portugal,2018,PT,620,41.5510583,-8.4280045
Kosice,51.36,16.16,34.38,44.97,33.36,61.62,Slovakia,2018,SK,703,48.7172272,21.2496774
Muscat,51.2,25.41,38.76,46.81,51.63,103.55,Oman,2018,OM,512,23.61515,58.5912467
Budapest,51.0,18.08,35.12,40.71,40.43,55.54,Hungary,2018,HU,348,47.4979937,19.0403594
Jeddah (Jiddah),51.0,14.41,33.35,43.21,34.15,113.18,Saudi Arabia,2018,SA,682,21.483715949999997,39.17290852271105
Johor Bahru,50.98,11.96,32.16,63.42,25.08,42.93,Malaysia,2018,MY,458,1.503555,103.7495586
Harare,50.74,14.24,33.14,45.45,36.15,26.86,Zimbabwe,2018,ZW,716,-17.831773,31.045686
Belo Horizonte,50.41,12.56,32.15,37.82,41.12,35.32,Brazil,2018,BR,076,-19.9227318,-43.9450948
Florianopolis,50.4,15.08,33.37,39.36,42.08,39.69,Brazil,2018,BR,076,-27.5973002,-48.5496098
Addis Ababa,50.3,24.39,37.8,43.58,22.5,13.57,Ethiopia,2018,ET,231,9.0107934,38.7612525
Brno,50.29,19.26,35.32,44.77,34.98,73.86,Czech Republic,2018,CZ,Unknown code,49.1922443,16.6113382
San Salvador,50.29,12.78,32.2,51.28,37.29,28.62,El Salvador,2018,SV,222,13.6989939,-89.1914249
Al Khobar,50.18,15.67,33.53,44.86,33.74,124.32,Saudi Arabia,2018,SA,682,26.3039999,50.1960237
Johannesburg,50.02,22.45,36.72,41.72,49.92,125.99,South Africa,2018,ZA,710,-26.205,28.049722
Petaling Jaya,49.8,12.34,31.73,58.94,23.68,68.75,Malaysia,2018,MY,458,3.0991752,101.6450232
Dar Es Salaam,49.66,24.56,37.55,34.82,33.56,18.87,Tanzania,2018,TZ,Unknown code,-6.8160837,39.2803583
Shenzhen,49.65,25.37,37.94,53.67,31.34,83.96,China,2018,CN,156,22.5445741,114.0545429
Penang,49.5,10.67,30.78,56.99,26.28,68.42,Malaysia,2018,MY,458,5.4065013,100.2559077
Guayaquil,49.49,13.57,32.17,44.21,36.59,36.14,Ecuador,2018,EC,218,-2.1900703,-79.8868702
Curitiba,49.43,12.63,31.68,37.0,41.47,46.26,Brazil,2018,BR,076,-25.4295963,-49.2712724
Phnom Penh,49.24,17.42,33.89,53.68,24.62,26.41,Cambodia,2018,KH,116,11.568271,104.9224426
Santo Domingo,49.1,12.49,31.44,42.25,46.38,28.77,Dominican Republic,2018,DO,214,18.4801972,-69.942111
Irbil,49.08,13.91,32.12,41.62,43.07,49.2,Iraq,2018,IQ,368,36.1911624,44.0094652
Osijek,49.04,8.14,29.32,40.85,36.36,58.44,Croatia,2018,HR,191,45.5548793,18.6953685
Gdansk,49.01,17.8,33.96,36.86,40.96,72.77,Poland,2018,PL,616,54.36119285,18.62860883362069
Ad Dammam,48.87,12.68,31.41,42.33,32.19,141.35,Saudi Arabia,2018,SA,682,26.4367824,50.1039991
Quito,48.84,14.05,32.06,47.67,36.41,34.37,Ecuador,2018,EC,218,-0.2201641,-78.5123274
Warsaw,48.31,22.5,35.86,38.53,42.2,77.31,Poland,2018,PL,616,52.2319581,21.0067249
Riyadh,48.21,16.46,32.9,41.46,35.41,129.2,Saudi Arabia,2018,SA,682,24.638916,46.7160104
Chiang Mai,47.92,12.1,30.65,60.54,22.68,31.68,Thailand,2018,TH,764,18.7882778,98.9858802
Gdynia,47.86,14.6,31.82,38.15,43.91,72.98,Poland,2018,PL,616,54.5164982,18.5402738
Kota Kinabalu,47.75,10.48,29.78,56.27,23.67,37.17,Malaysia,2018,MY,458,5.9780066,116.0728988
Cape Town,47.55,28.98,38.59,40.96,45.21,94.27,South Africa,2018,ZA,710,-33.928992,18.417396
Pattaya,47.24,18.59,33.42,50.38,29.61,29.96,Thailand,2018,TH,764,12.9366674,100.8864587
Port Elizabeth,47.09,13.95,31.11,40.21,41.53,64.08,South Africa,2018,ZA,710,-33.9617051,25.6207519
Guatemala City,46.97,15.52,31.8,43.64,37.17,41.41,Guatemala,2018,GT,320,14.6222328,-90.5185188
Kuching,46.79,6.86,27.53,52.35,20.02,41.76,Malaysia,2018,MY,458,1.5574127,110.3439862
Jakarta,46.47,19.34,33.39,49.49,26.34,34.8,Indonesia,2018,ID,360,-6.1753942,106.827183
Saint Petersburg,46.41,20.17,33.75,38.12,47.73,56.75,Russia,2018,RU,Unknown code,59.938732,30.316229
Durban,46.3,15.74,31.56,39.21,43.53,96.43,South Africa,2018,ZA,710,-29.861825,31.009909
Kuala Lumpur,46.28,17.96,32.62,47.17,27.39,80.73,Malaysia,2018,MY,458,3.1516964,101.6942371
Wroclaw,46.27,19.64,33.43,38.06,39.12,74.19,Poland,2018,PL,616,51.1263106,16.97819633051261
Beijing,46.09,33.51,40.02,44.92,35.14,76.61,China,2018,CN,156,39.906217,116.3912757
Baghdad,46.05,14.76,30.96,40.35,42.03,52.05,Iraq,2018,IQ,368,33.3024309,44.3787992
Selangor,46.04,11.34,29.31,50.35,23.26,88.61,Malaysia,2018,MY,458,3.2083304,101.304146
Olomouc,45.99,13.01,30.08,43.34,31.6,79.5,Czech Republic,2018,CZ,Unknown code,49.5940567,17.251143
Krakow (Cracow),45.79,18.18,32.48,36.66,38.32,73.59,Poland,2018,PL,616,50.047136,19.8896389
Maputo,45.29,18.58,32.41,36.64,41.88,33.15,Mozambique,2018,MZ,508,-25.966213,32.56745
Poznan,45.27,15.45,30.89,37.57,37.54,74.63,Poland,2018,PL,616,52.4006632,16.91973259178088
Debrecen,44.92,10.34,28.24,37.81,33.04,48.52,Hungary,2018,HU,348,47.531399,21.6259782
Bydgoszcz,44.91,15.1,30.53,35.24,37.73,66.01,Poland,2018,PL,616,53.12974625,18.029369658534854
Ostrava,44.78,10.73,28.36,38.89,32.47,78.36,Czech Republic,2018,CZ,Unknown code,49.8349139,18.2820084
Istanbul,44.73,14.35,30.08,39.35,33.0,54.57,Turkey,2018,TR,792,41.0091982,28.9662187
Podgorica,44.68,11.1,28.48,35.64,37.75,51.8,Montenegro,2018,ME,499,42.4415238,19.2621081
Szczecin,44.61,12.73,29.23,35.91,34.7,60.33,Poland,2018,PL,616,53.42968095,14.592912670292268
Bucharest,44.38,14.0,29.73,36.6,40.58,58.75,Romania,2018,RO,642,44.4361414,26.1027202
Belgrade,43.99,12.28,28.7,32.31,38.34,40.25,Serbia,2018,RS,688,44.8178131,20.4568974
Lima,43.92,17.91,31.38,39.88,31.53,39.55,Peru,2018,PE,604,-12.0621065,-77.0365256
Bali,43.73,8.12,26.56,49.07,25.29,29.2,Indonesia,2018,ID,360,-8.3304977,115.0906401
Lodz,43.68,12.79,28.78,34.02,36.68,70.09,Poland,2018,PL,616,51.7687323,19.4569911
Guangzhou,43.5,20.93,32.61,44.04,27.37,79.47,China,2018,CN,156,23.1301964,113.2592945
Sofia,43.11,12.96,28.57,37.06,34.44,60.66,Bulgaria,2018,BG,100,42.6978634,23.3221789
Sarajevo,42.5,10.13,26.89,35.37,31.5,48.89,Bosnia and Herzegovina,2018,BA,070,43.8519774,18.3866868
Manila,42.4,19.94,31.57,38.19,29.13,43.04,Philippines,2018,PH,608,14.5948914,120.9782618
Lublin,42.33,18.04,30.62,34.52,34.11,57.02,Poland,2018,PL,616,51.218194499999996,22.554677562145155
Katowice,42.28,12.37,27.86,34.17,32.56,81.77,Poland,2018,PL,616,50.2137321,19.00588775660632
Varna,42.26,8.71,26.08,37.66,34.85,48.43,Bulgaria,2018,BG,100,43.2073873,27.9166653
Nairobi,42.06,12.27,27.7,40.4,34.31,27.87,Kenya,2018,KE,404,-1.2832533,36.8172449
Yekaterinburg,42.05,12.4,27.75,37.86,36.08,52.61,Russia,2018,RU,Unknown code,56.839104,60.60825
Cebu,41.81,11.84,27.36,43.31,24.71,26.16,Philippines,2018,PH,608,10.2931062,123.9020773
Timisoara,41.62,10.78,26.75,34.26,36.97,59.09,Romania,2018,RO,642,45.7538355,21.2257474
Rabat,41.62,13.47,28.04,37.31,27.57,45.29,Morocco,2018,MA,504,34.022405,-6.834543
Ho Chi Minh City,41.28,18.81,30.45,42.17,21.09,36.92,Vietnam,2018,VN,Unknown code,10.7715512,106.6983801
Ankara,41.21,7.95,25.17,36.71,31.39,56.89,Turkey,2018,TR,792,39.9207886,32.8540482
Izmir,40.97,8.86,25.48,37.48,29.22,54.57,Turkey,2018,TR,792,38.4224548,27.1310699
Burgas,40.81,7.29,24.65,35.83,33.58,50.53,Bulgaria,2018,BG,100,42.444553,27.208264534658166
Cluj-Napoca,40.51,13.6,27.54,34.7,33.06,59.81,Romania,2018,RO,642,46.769379,23.5899542
Plovdiv,40.29,7.65,24.55,35.49,33.1,54.98,Bulgaria,2018,BG,100,42.1418541,24.7499297
Bursa,40.26,6.73,24.09,34.46,27.63,55.63,Turkey,2018,TR,792,40.1827657,29.0677305
Yogyakarta,40.01,6.09,23.65,45.78,14.56,30.25,Indonesia,2018,ID,360,-7.9778383999999996,110.36722565020224
Hanoi,39.89,14.56,27.67,40.28,22.71,27.09,Vietnam,2018,VN,Unknown code,21.0294498,105.8544441
Novosibirsk,39.86,12.16,26.5,35.77,34.9,47.89,Russia,2018,RU,Unknown code,55.0282171,82.9234509
Banja Luka,39.85,7.77,24.38,32.73,28.97,51.24,Bosnia and Herzegovina,2018,BA,070,44.7720845,17.1917651
Nizhny Novgorod,39.83,11.38,26.11,35.11,37.77,40.34,Russia,2018,RU,Unknown code,56.3264816,44.0051395
Iasi,39.81,10.55,25.7,33.52,34.64,51.29,Romania,2018,RO,642,47.1615341,27.5836142
Suzhou,39.57,17.11,28.74,39.63,31.65,91.87,China,2018,CN,156,31.3016935,120.5810725
Kazan,39.53,12.81,26.64,33.82,43.81,51.14,Russia,2018,RU,Unknown code,55.7823547,49.1242266
Sibiu,39.5,8.46,24.53,32.76,33.38,54.27,Romania,2018,RO,642,45.7973912,24.1519202
Tirana,39.33,9.96,25.17,31.79,32.05,38.05,Albania,2018,AL,008,41.3281482,19.8184435
Chengdu,39.26,12.73,26.47,38.41,28.42,77.03,China,2018,CN,156,30.6598628,104.0633717
Surabaya,39.24,8.6,24.46,43.32,18.67,37.58,Indonesia,2018,ID,360,-7.2459717,112.7378266
Rostov-na-donu,39.1,12.21,26.13,31.64,41.73,35.31,Russia,2018,RU,Unknown code,47.2610441,39.72490856518773
Bogota,38.99,13.86,26.87,31.74,29.55,42.03,Colombia,2018,CO,170,4.6533326,-74.083652
Oradea,38.94,7.42,23.74,32.85,25.94,46.65,Romania,2018,RO,642,47.0549163,21.9285231
Novi Sad,38.9,7.47,23.74,31.2,28.89,48.41,Serbia,2018,RS,688,45.2551338,19.8451756
Casablanca,38.81,16.45,28.02,33.78,28.81,47.32,Morocco,2018,MA,504,33.5675527,-7.618756606822727
Antalya,38.77,7.18,23.53,33.47,29.4,54.45,Turkey,2018,TR,792,36.9009641,30.6954846
Skopje,38.51,9.26,24.4,30.7,29.14,41.99,Macedonia,2018,MK,Unknown code,41.9960924,21.4316495
Monterrey,38.45,11.52,25.46,35.16,38.06,84.22,Mexico,2018,MX,484,25.6802019,-100.315258
Cuenca,38.41,10.38,24.89,37.19,26.71,43.44,Ecuador,2018,EC,218,-2.8971725,-79.0043742
Brasov,38.37,9.96,24.67,31.4,33.82,67.91,Romania,2018,RO,642,45.6523093,25.6102746
Ulaanbaatar,38.13,11.34,25.21,37.23,25.59,33.71,Mongolia,2018,MN,496,47.94909925,107.02225913456641
Medan,37.99,4.71,21.94,41.6,18.35,44.28,Indonesia,2018,ID,360,3.5896654,98.6738261
Tehran,37.8,19.93,29.18,34.45,30.9,43.28,Iran,2018,IR,Unknown code,35.6892523,51.3896004
Colombo,37.72,9.88,24.29,41.98,22.74,27.62,Sri Lanka,2018,LK,144,6.9387469,79.8541134
Bandung,37.68,6.05,22.42,43.19,17.12,33.9,Indonesia,2018,ID,360,-6.9344694,107.6049539
Mexico City,37.54,17.84,28.04,34.66,32.65,64.03,Mexico,2018,MX,484,19.4326296,-99.1331785
Astana,37.51,14.88,26.6,32.67,38.79,40.49,Kazakhstan,2018,KZ,398,51.1282205,71.4306682
Nis,37.32,5.73,22.09,29.67,30.85,38.68,Serbia,2018,RS,688,43.3211301,21.8959232
Kigali,37.18,11.85,24.96,31.27,27.33,28.22,Rwanda,2018,RW,646,-1.950851,30.061507
Algiers,37.13,8.61,23.38,38.43,22.86,33.38,Algeria,2018,DZ,012,36.7753606,3.0601882
Arad,36.47,9.22,23.33,30.52,28.55,60.77,Romania,2018,RO,642,46.1753793,21.3196342
Asuncion,36.16,10.71,23.88,30.88,27.65,34.68,Paraguay,2018,PY,600,-25.2800459,-57.6343814
Santa Cruz,36.14,14.26,25.59,29.42,29.15,57.64,Bolivia,2018,BO,Unknown code,-17.333333,-61.5
Kathmandu,36.06,5.83,21.48,33.22,21.92,23.73,Nepal,2018,NP,524,27.708317,85.3205817
Almaty,36.05,11.72,24.31,28.66,35.51,46.81,Kazakhstan,2018,KZ,398,43.2363924,76.9457275
Medellin,35.87,12.33,24.52,31.73,27.61,29.33,Colombia,2018,CO,170,6.2443382,-75.573553
Cancun,35.58,9.8,23.15,29.93,35.3,61.69,Mexico,2018,MX,484,21.1617854,-86.8510468
Minsk,35.3,11.25,23.71,28.55,38.12,43.77,Belarus,2018,BY,112,53.9024716,27.5618225
Gurgaon,34.9,10.96,23.36,32.59,30.88,110.97,India,2018,IN,356,28.42826235,77.00270014657752
Craiova,34.34,6.84,21.07,28.61,25.41,58.56,Romania,2018,RO,642,44.3190159,23.7965614
Guadalajara,34.19,10.12,22.58,33.15,30.82,71.87,Mexico,2018,MX,484,20.6720375,-103.338396
Tijuana,34.13,10.81,22.88,32.67,32.65,45.26,Mexico,2018,MX,484,32.5010188,-116.964662
Yerevan,34.12,9.37,22.18,27.73,31.77,32.52,Armenia,2018,AM,051,40.1776245,44.5126174
Kampala,34.09,7.59,21.31,28.02,26.64,23.36,Uganda,2018,UG,800,0.3177137,32.5813539
Chisinau,34.06,9.35,22.14,27.64,25.5,31.39,Moldova,2018,MD,Unknown code,47.0245117,28.8322923
Quezon City,33.93,7.79,21.33,29.54,19.44,29.57,Philippines,2018,PH,608,14.6509905,121.0486155
Hermosillo,33.86,7.29,21.05,30.3,29.75,77.33,Mexico,2018,MX,484,29.0948207,-110.9692202
Davao,33.67,6.84,20.73,32.75,16.83,28.86,Philippines,2018,PH,608,7.0645451,125.6084371
Caracas,33.64,9.63,22.06,35.03,30.79,3.72,Venezuela,2018,VE,Unknown code,10.506098,-66.9146017
Queretaro,33.51,9.52,21.94,33.17,27.96,63.18,Mexico,2018,MX,484,20.5927744,-100.3902245
Merida,33.18,7.58,20.83,32.01,26.75,37.23,Mexico,2018,MX,484,20.9670759,-89.6237402
Cali,33.04,7.44,20.69,28.79,23.76,39.71,Colombia,2018,CO,170,3.4517923,-76.5324943
Puerto Vallarta,32.7,11.52,22.48,32.27,31.03,62.36,Mexico,2018,MX,484,20.6407176,-105.220306
Puebla,32.65,7.22,20.38,28.36,27.84,45.28,Mexico,2018,MX,484,18.833333,-98.0
Mumbai,32.59,22.72,27.83,32.94,26.68,73.49,India,2018,IN,356,19.0759899,72.8773928
Noida,32.37,6.56,19.92,33.12,24.04,95.95,India,2018,IN,356,28.5707841,77.3271074
Delhi,32.14,9.74,21.34,30.67,27.54,78.33,India,2018,IN,356,28.6517178,77.2219388
Baku,31.31,9.65,20.86,27.9,32.31,29.19,Azerbaijan,2018,AZ,031,40.3754434,49.8326748
Valenzuela,31.23,3.82,18.01,32.44,12.95,31.9,Philippines,2018,PH,608,14.6916903,120.9694534
Islamabad,30.83,8.79,20.2,28.5,23.5,43.2,Pakistan,2018,PK,586,33.6938118,73.0651511
Bangalore,30.34,9.76,20.41,31.47,20.23,100.26,India,2018,IN,356,12.9767936,77.590082
Tunis,30.06,7.39,19.13,29.49,18.19,34.32,Tunisia,2018,TN,788,33.8439408,9.400138
Thane,29.82,9.3,19.92,31.07,21.18,70.55,India,2018,IN,356,19.1943294,72.9701779
Odesa,29.79,10.23,20.36,22.29,24.04,27.73,Ukraine,2018,UA,804,46.4843023,30.7322878
Tbilisi,29.73,10.6,20.5,24.65,29.18,35.61,Georgia,2018,GE,268,41.6934591,44.8014495
Pune,29.66,7.95,19.19,30.75,21.4,99.44,India,2018,IN,356,18.521428,73.8544541
Lahore,29.53,6.67,18.5,26.83,26.39,51.44,Pakistan,2018,PK,586,31.5656822,74.3141829
Chandigarh,29.04,6.47,18.15,29.4,20.18,68.83,India,2018,IN,356,30.7334421,76.7797143
Ahmedabad,28.67,6.24,17.85,31.42,20.13,73.59,India,2018,IN,356,23.0216238,72.5797068
Surat,28.66,4.69,17.1,31.97,19.84,57.84,India,2018,IN,356,21.19177615,72.9544157804841
Chennai,28.42,7.12,18.14,31.17,18.26,72.34,India,2018,IN,356,13.0836939,80.270186
Goa,28.3,8.27,18.64,29.8,22.96,54.55,India,2018,IN,356,15.3503192,74.10178169795284
Indore,28.06,4.66,16.78,27.74,17.77,50.42,India,2018,IN,356,22.7203616,75.8681996
Kolkata,27.99,7.77,18.24,28.53,23.18,56.3,India,2018,IN,356,22.5414185,88.35769124388872
Lucknow (Lakhnau),27.55,4.9,16.62,27.25,18.76,76.1,India,2018,IN,356,26.7736708,80.9431384
Kiev,27.52,12.43,20.24,21.96,22.01,37.48,Ukraine,2018,UA,804,50.4500336,30.5241361
Jaipur,27.11,5.19,16.54,27.65,18.48,76.5,India,2018,IN,356,26.9154576,75.8189817
Karachi,27.1,7.46,17.63,25.6,21.62,39.06,Pakistan,2018,PK,586,24.8546842,67.0207055
Hyderabad,26.92,6.89,17.26,27.6,18.93,80.9,India,2018,IN,356,17.360589,78.4740613
Cairo,26.49,5.43,16.33,23.23,22.55,25.27,Egypt,2018,EG,818,30.0443879,31.2357257
Dnipropetrovsk,26.39,6.63,16.86,20.46,22.74,31.06,Ukraine,2018,UA,804,48.662589,34.9501715
Nagpur,26.23,4.96,15.97,26.55,18.73,95.19,India,2018,IN,356,21.1498134,79.0820556
Bhopal,26.07,4.13,15.49,22.49,16.21,66.21,India,2018,IN,356,23.2584857,77.401989
Vadodara,25.59,4.01,15.18,27.85,16.02,80.63,India,2018,IN,356,22.2973142,73.1942567
Mangalore,25.46,5.7,15.93,26.85,16.04,94.53,India,2018,IN,356,12.8698101,74.8430082
Lviv,25.31,8.1,17.01,20.5,17.88,26.88,Ukraine,2018,UA,804,49.841952,24.0315921
Mysore,25.2,4.01,14.98,29.39,13.31,42.49,India,2018,IN,356,12.3051828,76.6553609
Bhubaneswar,24.89,4.68,15.14,28.22,14.91,57.56,India,2018,IN,356,20.28105765,85.81140263163533
Kharkiv,24.85,8.29,16.87,19.26,18.44,27.19,Ukraine,2018,UA,804,49.9923181,36.2310146
Visakhapatnam,24.66,4.85,15.11,25.83,18.07,63.97,India,2018,IN,356,17.7231276,83.3012842
Kochi,24.65,6.31,15.8,26.93,13.94,77.7,India,2018,IN,356,9.931308,76.2674136
Coimbatore,24.61,5.35,15.32,25.23,15.21,53.23,India,2018,IN,356,11.0018115,76.9628425
Alexandria,23.78,4.34,14.4,23.19,17.66,23.75,Egypt,2018,EG,818,31.199004,29.894378
Navi Mumbai,23.44,6.25,15.15,24.02,14.14,111.99,India,2018,IN,356,19.0308262,73.0198537
Thiruvananthapuram,20.86,5.1,13.26,21.98,12.06,66.25,India,2018,IN,356,8.5241122,76.9360573
Zurich,149.53,66.76,108.77,163.71,140.58,126.3,Switzerland,2017,CH,756,47.3744489,8.5410422
Hamilton,148.13,117.8,133.2,145.2,152.54,93.42,Bermuda,2017,BM,060,32.2956076,-64.7827048
Zug,142.54,67.39,105.54,148.36,143.18,105.62,Switzerland,2017,CH,756,47.1486137,8.5539378
Geneva,142.12,70.25,106.73,147.13,138.96,115.2,Switzerland,2017,CH,756,46.2017559,6.1466014
Basel,142.02,51.54,97.47,149.54,131.72,113.13,Switzerland,2017,CH,756,47.5581077,7.5878261
Bern,135.51,45.33,91.11,145.72,122.48,101.65,Switzerland,2017,CH,756,46.9482713,7.4514512
Lausanne,131.38,54.56,93.56,136.95,127.87,112.33,Switzerland,2017,CH,756,46.5218269,6.6327025
Reykjavik,130.73,55.9,93.89,128.37,140.61,68.49,Iceland,2017,IS,352,64.145981,-21.9422367
Lugano,124.39,51.73,88.62,120.83,127.53,108.92,Switzerland,2017,CH,756,46.0050102,8.9520281
Stavanger,116.98,37.4,77.8,107.72,142.61,101.0,Norway,2017,NO,578,59.1020129,5.712611357275702
Trondheim,116.02,41.27,79.22,110.1,128.03,93.68,Norway,2017,NO,578,63.4305658,10.3951929
Oslo,114.78,47.99,81.9,111.48,126.2,86.67,Norway,2017,NO,578,59.9133301,10.7389701
Bergen,112.66,39.58,76.68,106.84,117.45,87.68,Norway,2017,NO,578,60.3943055,5.3259192
Nassau,109.58,37.4,74.04,103.09,99.27,43.82,Bahamas,2017,BS,044,25.0783456,-77.3383331
Honolulu,103.32,64.98,84.44,121.83,88.49,84.93,United States,2017,US,840,21.2890997,-157.717299
San Francisco,101.94,119.63,110.65,116.73,93.57,104.4,United States,2017,US,840,37.7790262,-122.419906
Anchorage,101.9,41.57,72.2,109.58,88.67,130.22,United States,2017,US,840,61.2163129,-149.894852
Brooklyn,101.06,77.52,89.47,105.51,106.84,82.64,United States,2017,US,840,40.6526006,-73.9497211
New York,100.0,100.0,100.0,100.0,100.0,100.0,United States,2017,US,840,40.7127281,-74.0060152
Rockville,98.81,61.4,80.39,97.2,71.68,135.58,United States,2017,US,840,39.0817985,-77.1516844
Tokyo,97.71,38.68,68.65,107.25,57.87,93.49,Japan,2017,JP,392,35.6828387,139.7594549
Copenhagen,97.14,49.61,73.74,78.25,113.91,93.39,Denmark,2017,DK,208,55.6867243,12.5700724
Washington,95.96,74.32,85.31,96.97,90.78,107.86,United States,2017,US,840,38.8950368,-77.0365427
New Haven,94.1,47.09,70.95,112.78,91.54,114.53,United States,2017,US,840,41.3082138,-72.9250518
Berkeley,93.86,76.36,85.24,109.86,81.71,87.37,United States,2017,US,840,37.8753497,-122.23963364918777
Seattle,93.31,65.46,79.6,98.17,86.72,121.29,United States,2017,US,840,47.6038321,-122.3300624
Arlington,93.17,67.79,80.67,93.16,85.61,117.45,United States,2017,US,840,32.7355816,-97.1071186
Aalborg,92.12,25.34,59.24,77.34,104.6,89.9,Denmark,2017,DK,208,57.0462626,9.9215263
Tel Aviv-Yafo,92.09,49.51,71.12,80.75,96.79,93.0,Israel,2017,IL,376,32.0852997,34.7818064
Santa Rosa,91.92,55.04,73.76,97.22,78.7,116.21,United States,2017,US,840,38.4404925,-122.7141049
Sydney,91.42,66.35,79.08,88.91,75.94,102.69,Australia,2017,AU,036,-33.8548157,151.2164539
Limerick,91.28,24.7,58.5,90.69,80.66,80.06,Ireland,2017,IE,372,52.66833065,-8.66451062242474
Stockholm,91.21,42.98,67.46,87.98,91.35,88.09,Sweden,2017,SE,752,59.3251172,18.0710935
Bellevue,91.18,67.97,79.75,97.99,80.55,138.68,United States,2017,US,840,47.6144219,-122.192337
Perth,91.03,39.98,65.89,89.61,94.19,105.98,Australia,2017,AU,036,-31.9558964,115.8605801
Auckland,90.97,44.46,68.07,86.28,77.66,90.77,New Zealand,2017,NZ,554,-36.852095,174.7631803
Oakland,90.73,78.69,84.8,97.63,84.79,91.15,United States,2017,US,840,37.8044557,-122.2713563
Jerusalem,90.73,36.74,64.15,75.74,99.24,73.51,Israel,2017,IL,376,31.79592425,35.21198075969497
Miami,90.68,63.46,77.27,93.95,98.47,89.18,United States,2017,US,840,25.7741728,-80.19362
Boston,90.23,78.41,84.41,93.76,87.59,112.94,United States,2017,US,840,42.3602534,-71.0582912
Hamilton,90.22,25.86,58.53,84.08,86.07,122.44,New Zealand,2017,NZ,554,-37.7878809,175.281788
Paris,89.98,45.8,68.23,87.3,88.3,89.07,France,2017,FR,250,48.8588897,2.3200410217200766
Darwin,89.91,45.41,68.0,91.03,95.6,97.2,Australia,2017,AU,036,-12.46044,130.8410469
London,89.34,73.37,81.48,67.7,96.34,77.75,United Kingdom,2017,GB,826,51.5073219,-0.1276474
Cairns,88.52,29.28,59.35,87.81,80.18,78.43,Australia,2017,AU,036,-16.9206657,145.7721854
Dublin,88.49,54.65,71.83,73.25,91.98,82.09,Ireland,2017,IE,372,53.3497645,-6.2602732
Charleston,88.41,48.83,68.92,98.58,78.7,111.13,United States,2017,US,840,32.7876012,-79.9402728
Linz,88.39,28.3,58.8,86.61,84.92,81.61,Austria,2017,AT,040,48.3059078,14.286198
Amsterdam,88.25,51.33,70.07,75.16,92.24,85.23,Netherlands,2017,NL,528,52.3727598,4.8936041
Singapore,88.07,66.99,77.69,81.34,61.4,88.14,Singapore,2017,SG,702,1.357107,103.8194992
Philadelphia,87.74,49.34,68.83,91.14,80.92,115.92,United States,2017,US,840,39.9527237,-75.1635262
Luxembourg,87.43,54.71,71.32,76.46,97.79,104.71,Luxembourg,2017,LU,442,49.6112768,6.129799
Melbourne,87.34,30.73,59.47,104.43,81.84,136.52,United States,2017,US,840,28.106471,-80.6371513
Helsinki,87.24,39.8,63.88,76.39,92.69,99.09,Finland,2017,FI,246,60.1674881,24.9427473
Burlington,87.21,41.14,64.52,97.28,82.09,95.31,United States,2017,US,840,44.4761601,-73.212906
Arhus,87.12,31.61,59.79,67.21,99.8,102.14,Denmark,2017,DK,208,56.1496278,10.2134046
Lyon,87.04,24.45,56.22,86.32,79.12,85.83,France,2017,FR,250,45.7578137,4.8320114
Beersheba,86.99,18.83,53.43,75.86,84.99,79.89,Israel,2017,IL,376,31.2457442,34.7925181
Tacoma,86.78,36.99,62.26,91.42,75.32,110.13,United States,2017,US,840,47.2495798,-122.4398746
Antwerp,86.24,26.63,56.89,79.59,94.81,76.93,Belgium,2017,BE,056,51.2211097,4.3997081
Melbourne,86.11,44.02,65.38,87.3,76.69,111.5,Australia,2017,AU,036,-37.8142176,144.9631608
Adelaide,86.08,33.39,60.14,86.53,78.04,105.84,Australia,2017,AU,036,-34.9281805,138.5999312
Dusseldorf,85.92,34.53,60.62,70.52,82.69,95.7,Germany,2017,DE,276,51.2254018,6.7763137
Seoul,85.89,33.41,60.05,107.03,47.48,84.05,South Korea,2017,KR,Unknown code,37.5666791,126.9782914
Baltimore,85.65,47.62,66.93,91.75,82.5,109.07,United States,2017,US,840,39.2908816,-76.610759
Ramat Gan,85.61,36.47,61.41,73.09,89.45,108.03,Israel,2017,IL,376,32.0686867,34.8246812
Christchurch,85.39,31.18,58.7,83.29,80.42,76.59,New Zealand,2017,NZ,554,-43.530955,172.6366455
Minneapolis,85.38,43.62,64.81,96.04,78.89,115.28,United States,2017,US,840,44.9772995,-93.2654692
Boulder,85.34,54.96,70.38,90.71,79.07,130.31,United States,2017,US,840,40.0149856,-105.270545
Gent,85.32,25.28,55.76,77.08,90.47,82.14,Belgium,2017,BE,056,51.0538286,3.7250121
San Jose,85.13,83.63,84.39,90.68,84.04,140.74,United States,2017,US,840,37.3361905,-121.890583
Queens,84.7,63.98,74.5,80.22,88.5,98.73,United States,2017,US,840,40.7135078,-73.8283132
St. John's,84.62,21.85,53.71,93.44,81.38,82.76,Canada,2017,CA,124,47.5614705,-52.7126162
Brisbane,84.56,42.04,63.62,82.3,80.38,110.56,Australia,2017,AU,036,-27.4689682,153.0234991
Portland,84.53,40.28,62.74,91.22,89.26,98.86,United States,2017,US,840,45.5202471,-122.6741949
Leuven,84.43,27.78,56.54,85.53,78.74,72.27,Belgium,2017,BE,056,50.879202,4.7011675
Hobart,84.43,29.67,57.47,85.04,90.66,87.21,Australia,2017,AU,036,-42.8825088,147.3281233
Chicago,84.39,56.81,70.81,83.89,83.68,118.59,United States,2017,US,840,41.8755616,-87.6244212
Milan,84.32,40.06,62.53,76.95,88.99,61.78,Italy,2017,IT,380,45.4641943,9.1896346
Akron,84.18,21.06,53.1,96.39,66.97,77.07,United States,2017,US,840,41.083064,-81.518485
Frankfurt,84.17,36.38,60.64,74.43,79.26,98.02,Germany,2017,DE,276,50.1106444,8.6820917
Olympia,84.07,31.38,58.13,92.66,73.7,171.26,United States,2017,US,840,47.0451022,-122.8950075
Gothenburg,84.06,29.42,57.16,79.16,89.95,96.41,Sweden,2017,SE,752,57.7072326,11.9670171
Wellington,83.98,36.74,60.72,82.91,75.43,133.6,New Zealand,2017,NZ,554,-41.2887953,174.7772114
Hartford,83.7,42.97,63.65,86.3,86.72,101.18,United States,2017,US,840,41.764582,-72.6908547
Florence,83.56,28.68,56.54,73.49,84.31,56.89,Italy,2017,IT,380,43.7698712,11.2555757
Saskatoon,83.15,28.44,56.21,90.72,71.67,83.67,Canada,2017,CA,124,52.131802,-106.660767
Reading,83.15,39.87,61.84,71.07,93.22,102.32,United Kingdom,2017,GB,826,51.456659,-0.9696512
Allentown,83.1,34.6,59.22,90.72,70.47,93.39,United States,2017,US,840,40.6022059,-75.4712794
The Hague (Den Haag),83.07,32.69,58.26,69.21,88.64,94.94,Netherlands,2017,NL,528,52.0799838,4.3113461
Haifa,82.9,21.77,52.8,69.55,90.85,114.85,Israel,2017,IL,376,32.8191218,34.9983856
Aberdeen,82.82,31.71,57.66,70.07,94.86,102.77,United Kingdom,2017,GB,826,57.1482429,-2.0928095
Canberra,82.81,43.63,63.52,82.67,80.31,118.74,Australia,2017,AU,036,-35.2975906,149.1012676
Irvine,82.79,65.6,74.33,88.68,79.0,126.76,United States,2017,US,840,33.6856969,-117.8259819
Sacramento,82.76,43.53,63.45,87.64,75.56,121.89,United States,2017,US,840,38.5810606,-121.493895
Everett,82.76,41.16,62.27,94.42,72.62,100.36,United States,2017,US,840,47.9673056,-122.201399
Brussels,82.68,34.19,58.8,74.25,90.76,86.75,Belgium,2017,BE,056,50.8465573,4.351697
Fort Collins,82.53,40.78,61.98,95.23,71.33,63.35,United States,2017,US,840,40.5508527,-105.0668085
Halifax,82.49,28.13,55.72,89.36,82.37,78.76,Canada,2017,CA,124,44.648618,-63.5859487
Cambridge,82.43,44.13,63.57,69.24,93.5,93.6,United Kingdom,2017,GB,826,52.2055314,0.1186637
Genoa,82.35,20.97,52.13,75.05,78.0,57.0,Italy,2017,IT,380,44.40726,8.9338624
New Orleans,82.33,41.07,62.01,85.51,84.97,101.33,United States,2017,US,840,29.9759983,-90.0782127
Pittsburgh,82.25,39.28,61.09,84.36,74.44,131.51,United States,2017,US,840,40.4416941,-79.9900861
Tampere,82.15,26.35,54.67,71.95,87.94,94.02,Finland,2017,FI,246,61.4980214,23.7603118
Los Angeles,82.11,67.55,74.94,82.06,84.13,118.09,United States,2017,US,840,34.0536909,-118.242766
Turku,82.07,25.07,54.0,73.27,86.38,105.86,Finland,2017,FI,246,60.4517531,22.2670522
Hamburg,81.95,31.88,57.3,70.58,71.82,95.78,Germany,2017,DE,276,53.550341,10.000654
Orlando,81.87,40.14,61.32,89.93,77.83,117.11,United States,2017,US,840,28.5421109,-81.3790304
Portland,81.72,51.94,67.06,85.72,71.25,122.71,United States,2017,US,840,45.5202471,-122.6741949
Maastricht,81.71,29.99,56.24,75.19,80.65,90.25,Netherlands,2017,NL,528,50.85798545,5.6969881818221095
Denver,81.71,54.11,68.12,84.5,79.32,129.35,United States,2017,US,840,39.7392364,-104.9848623
Saint Paul,81.64,38.14,60.22,88.63,73.01,88.16,United States,2017,US,840,44.9497487,-93.0931028
Cork,81.57,36.96,59.61,68.09,86.58,88.99,Ireland,2017,IE,372,51.897077,-8.4654674
Asheville,81.19,36.62,59.25,95.78,69.44,129.28,United States,2017,US,840,35.6009498,-82.5540161
Santa Barbara,81.14,70.52,75.91,80.42,86.66,176.22,United States,2017,US,840,34.4221319,-119.7026673
Toulouse,81.0,24.76,53.31,78.82,79.73,102.14,France,2017,FR,250,43.6044622,1.4442469
Indianapolis,80.87,30.57,56.1,86.66,76.61,85.5,United States,2017,US,840,39.7683331,-86.1583502
Red Deer,80.82,25.67,53.67,79.29,78.42,91.82,Canada,2017,CA,124,52.2697395,-113.8181766
Lund,80.82,22.03,51.87,77.83,81.28,102.88,Sweden,2017,SE,752,55.7029296,13.1929449
Lethbridge,80.81,24.26,52.97,82.39,61.44,96.37,Canada,2017,CA,124,49.694285,-112.851562
Utrecht,80.7,37.98,59.67,68.94,90.5,93.44,Netherlands,2017,NL,528,52.080985600000005,5.12768396945229
Jersey City,80.7,68.03,74.46,81.67,78.18,140.69,United States,2017,US,840,40.7215682,-74.047455
Atlanta,80.68,44.2,62.72,86.13,77.17,136.03,United States,2017,US,840,33.7489924,-84.3902644
Padova,80.46,21.85,51.6,68.41,80.4,63.35,Italy,2017,IT,380,45.4077172,11.8734455
Munich,80.31,42.45,61.67,67.7,77.84,108.18,Germany,2017,DE,276,48.1371079,11.5753822
Eugene,80.22,31.42,56.19,94.92,67.22,108.26,United States,2017,US,840,44.0505054,-123.0950506
Oxford,80.09,51.18,65.86,64.02,79.84,74.67,United Kingdom,2017,GB,826,51.7520131,-1.2578499
San Diego,79.89,60.79,70.49,83.15,78.95,129.95,United States,2017,US,840,32.7174202,-117.1627728
Cleveland,79.64,30.27,55.33,78.0,79.61,112.89,United States,2017,US,840,41.4996562,-81.6936813
West Palm Beach,79.61,44.16,62.16,85.54,78.17,108.9,United States,2017,US,840,26.715364,-80.0532942
Osaka,79.56,24.08,52.25,80.91,44.73,94.8,Japan,2017,JP,392,34.6198813,135.490357
Detroit,79.5,36.81,58.48,82.7,67.57,124.39,United States,2017,US,840,42.3315509,-83.0466403
Jacksonville,79.48,33.71,56.95,86.89,72.29,95.46,United States,2017,US,840,30.3321838,-81.655651
Milwaukee,79.48,33.67,56.93,81.2,75.73,127.22,United States,2017,US,840,43.0349931,-87.922497
Barrie,79.28,26.09,53.09,81.44,76.13,94.54,Canada,2017,CA,124,44.3893113,-79.6901736
Hong Kong,79.24,82.67,80.93,83.4,56.3,74.04,Hong Kong,2017,HK,344,22.2793278,114.1628131
Gold Coast,79.24,37.71,58.79,81.07,72.99,110.96,Australia,2017,AU,036,-28.0023731,153.4145987
Malmo,79.24,27.11,53.58,76.99,83.08,106.32,Sweden,2017,SE,752,55.6052931,13.0001566
Fayetteville,79.07,22.93,51.43,88.7,67.54,80.29,United States,2017,US,840,36.0625843,-94.1574328
Waterloo,79.02,27.85,53.82,80.05,69.05,111.27,Canada,2017,CA,124,43.4652699,-80.5222961
Greensboro,78.98,25.26,52.53,90.06,61.02,133.43,United States,2017,US,840,36.0726355,-79.7919754
Tampa,78.92,44.51,61.98,85.17,80.01,102.73,United States,2017,US,840,27.9477595,-82.458444
Bergamo,78.83,20.86,50.28,67.3,88.8,73.7,Italy,2017,IT,380,45.756655699999996,9.754219200862249
Memphis,78.8,28.82,54.19,84.63,73.14,125.81,United States,2017,US,840,35.1490215,-90.0516285
Newcastle,78.76,41.02,60.18,80.92,83.53,119.36,Australia,2017,AU,036,-32.9192953,151.7795348
Galway,78.64,32.27,55.81,70.26,78.87,98.66,Ireland,2017,IE,372,53.2744122,-9.0490601
Rome,78.6,40.21,59.7,71.13,81.95,59.82,Italy,2017,IT,380,41.8933203,12.4829321
Edinburgh,78.57,32.71,55.99,71.7,79.39,93.93,United Kingdom,2017,GB,826,55.9533456,-3.1883749
Plano,78.55,40.22,59.68,78.1,66.46,149.09,United States,2017,US,840,33.0136764,-96.6925096
Grand Rapids,78.54,32.68,55.96,82.13,72.53,122.5,United States,2017,US,840,42.9632405,-85.6678639
Parma,78.4,22.79,51.02,64.52,93.46,72.13,Italy,2017,IT,380,44.8013678,10.3280833
Saint Petersburg,78.32,41.09,59.99,82.17,79.2,133.67,United States,2017,US,840,27.7703796,-82.6695085
Nashville,78.28,46.63,62.69,83.87,74.48,116.83,United States,2017,US,840,36.1622767,-86.7742984
Little Rock,78.2,25.58,52.29,90.26,66.91,111.23,United States,2017,US,840,34.7465071,-92.2896267
Austin,78.12,51.84,65.18,81.79,77.67,122.65,United States,2017,US,840,30.2711286,-97.7436995
Eindhoven,77.8,31.93,55.21,60.84,89.83,101.65,Netherlands,2017,NL,528,51.4392648,5.478633
Des Moines,77.79,31.89,55.19,92.55,65.1,84.89,United States,2017,US,840,41.5910323,-93.6046655
Uppsala,77.78,26.74,52.65,68.2,84.22,98.13,Sweden,2017,SE,752,59.8586126,17.6387436
Fort Lauderdale,77.71,52.75,65.42,79.97,78.35,102.52,United States,2017,US,840,26.1223084,-80.1433786
Harrisburg,77.53,26.7,52.5,88.04,66.89,116.75,United States,2017,US,840,40.2663107,-76.8861122
Rotterdam,77.47,31.02,54.6,61.07,85.16,97.14,Netherlands,2017,NL,528,51.9244424,4.47775
Bologna,77.24,24.86,51.45,70.57,81.97,66.96,Italy,2017,IT,380,44.4938203,11.3426327
Fresno,77.15,31.72,54.78,78.07,77.2,131.93,United States,2017,US,840,36.7394421,-119.7848307
Syracuse,76.96,28.49,53.09,81.82,65.68,84.89,United States,2017,US,840,43.0481221,-76.1474244
Lille,76.74,23.66,50.61,67.3,72.73,83.01,France,2017,FR,250,50.6365654,3.0635282
Coventry,76.71,24.87,51.18,65.03,68.85,106.76,United Kingdom,2017,GB,826,52.4081812,-1.510477
Heidelberg,76.57,34.35,55.78,67.21,67.16,121.62,Germany,2017,DE,276,49.4093582,8.694724
Nottingham,76.43,23.73,50.48,68.24,73.62,95.28,United Kingdom,2017,GB,826,52.9534193,-1.1496461
Victoria,76.43,35.37,56.21,82.8,70.21,100.1,Canada,2017,CA,124,48.4283182,-123.3649533
Charlotte,76.42,40.35,58.66,80.07,75.86,99.98,United States,2017,US,840,35.2272086,-80.8430827
Richmond,76.27,36.48,56.68,88.48,65.84,110.98,United States,2017,US,840,37.5385087,-77.43428
Buffalo,76.25,29.56,53.27,76.76,74.27,93.86,United States,2017,US,840,42.8867166,-78.8783922
York,76.24,27.91,52.44,67.26,83.31,101.79,United Kingdom,2017,GB,826,53.9590555,-1.0815361
Trieste,76.2,20.74,48.9,72.81,83.25,80.27,Italy,2017,IT,380,45.6496485,13.7772781
Calgary,76.09,31.82,54.29,76.3,70.71,117.87,Canada,2017,CA,124,51.0460954,-114.065465
Vienna,75.98,31.71,54.19,72.42,70.77,88.36,Austria,2017,AT,040,48.2083537,16.3725042
Brighton,75.98,41.55,59.03,60.75,84.26,76.23,United Kingdom,2017,GB,826,50.8389149,-0.12693017575934035
Dayton,75.86,21.14,48.92,87.31,59.68,92.25,United States,2017,US,840,39.7589478,-84.1916069
Augusta,75.83,20.52,48.59,83.71,65.58,100.72,United States,2017,US,840,33.4709714,-81.9748429
Newark,75.82,37.05,56.73,68.82,85.79,96.8,United States,2017,US,840,40.735657,-74.1723667
Raleigh,75.81,38.07,57.23,87.07,71.67,137.76,United States,2017,US,840,35.7803977,-78.6390989
Greenville,75.75,35.94,56.15,85.7,67.11,116.46,United States,2017,US,840,34.851354,-82.3984882
Saint Louis,75.57,30.21,53.24,79.36,71.65,138.13,United States,2017,US,840,38.6264256,-90.1995853
Edmonton,75.51,29.15,52.68,77.57,68.17,97.38,Canada,2017,CA,124,53.535411,-113.507996
Birmingham,75.32,28.16,52.1,78.05,74.72,130.74,United States,2017,US,840,33.5206824,-86.8024326
Nantes,75.22,21.77,48.9,69.74,75.54,103.53,France,2017,FR,250,47.2186371,-1.5541362
Sliema,75.21,30.56,53.23,68.97,78.48,67.89,Malta,2017,MT,470,35.9127609,14.5020708
Glasgow,75.2,28.24,52.08,64.82,82.93,99.45,United Kingdom,2017,GB,826,55.8609825,-4.2488787
Bristol,75.15,37.72,56.72,64.98,85.55,90.65,United Kingdom,2017,GB,826,51.47091115,-2.5790334025708415
Norwich,75.1,24.54,50.2,59.03,77.77,77.85,United Kingdom,2017,GB,826,52.6285694,1.2923049
Manchester,75.02,29.34,52.53,64.27,83.63,82.15,United Kingdom,2017,GB,826,53.4794892,-2.2451148
Shreveport,75.01,23.88,49.83,83.48,67.61,66.12,United States,2017,US,840,32.5221828,-93.7651944
Graz,74.98,22.98,49.38,72.61,62.51,96.54,Austria,2017,AT,040,47.0708678,15.4382786
Houston,74.95,44.18,59.8,79.6,72.1,147.15,United States,2017,US,840,29.7589382,-95.3676974
Groningen,74.95,27.45,51.56,64.61,83.66,90.22,Netherlands,2017,NL,528,53.2190652,6.5680077
Durham,74.94,35.04,55.3,82.87,65.67,150.01,United States,2017,US,840,35.996653,-78.9018053
Louisville,74.89,28.35,51.97,87.46,64.14,106.05,United States,2017,US,840,38.2542376,-85.759407
Vancouver,74.67,49.07,62.06,80.43,68.51,81.79,Canada,2017,CA,124,49.2608724,-123.113952
Columbia,74.6,30.07,52.67,84.2,69.25,73.57,United States,2017,US,840,34.0007493,-81.0343313
Stuttgart,74.52,31.54,53.36,56.92,72.24,114.35,Germany,2017,DE,276,48.7784485,9.1800132
Tallahassee,74.38,29.79,52.42,86.14,59.97,89.04,United States,2017,US,840,30.4380832,-84.2809332
Mississauga,74.34,35.04,54.99,74.52,65.37,90.91,Canada,2017,CA,124,43.5896231,-79.6443879
Rochester,74.12,29.85,52.32,80.49,73.53,121.55,United States,2017,US,840,43.157285,-77.615214
Las Vegas,74.03,30.85,52.77,70.97,77.69,137.36,United States,2017,US,840,36.1672559,-115.148516
San Juan,73.99,28.12,51.4,74.15,67.26,89.06,Puerto Rico,2017,PR,630,18.465299,-66.116666
Dubai,73.95,71.92,72.95,65.13,65.95,101.67,United Arab Emirates,2017,AE,784,25.2653471,55.2924914
Spokane,73.72,27.02,50.73,77.5,67.93,108.18,United States,2017,US,840,47.6571934,-117.4235106
Manchester,73.64,33.62,53.93,81.09,67.9,102.95,United States,2017,US,840,42.9956397,-71.4547891
Salem,73.33,29.8,51.89,76.12,73.66,90.58,United States,2017,US,840,44.9391565,-123.033121
Cincinnati,73.22,32.4,53.12,72.84,70.24,108.68,United States,2017,US,840,39.1014537,-84.5124602
Kelowna,73.2,32.8,53.31,78.56,67.77,95.08,Canada,2017,CA,124,49.8879177,-119.4959025
Fredericton,73.1,18.62,46.28,76.98,70.32,88.24,Canada,2017,CA,124,45.94780155,-66.65347069241668
Tulsa,73.08,29.11,51.43,79.06,65.4,108.64,United States,2017,US,840,36.1556805,-95.9929113
Fort Worth,73.02,35.36,54.48,75.47,67.27,138.85,United States,2017,US,840,32.753177,-97.3327459
Regina,73.02,27.15,50.43,76.75,65.63,97.16,Canada,2017,CA,124,50.44876,-104.61731
Lexington,73.01,27.86,50.78,77.85,64.7,104.85,United States,2017,US,840,38.0464066,-84.4970393
Gatineau,72.96,18.66,46.23,80.92,65.61,96.95,Canada,2017,CA,124,45.4841214,-75.6813728
Chattanooga,72.94,27.14,50.39,80.35,65.89,116.33,United States,2017,US,840,35.0457219,-85.3094883
Montevideo,72.91,20.09,46.9,58.79,74.81,29.29,Uruguay,2017,UY,858,-34.9058916,-56.1913095
Toronto,72.88,42.64,57.99,69.07,69.34,103.98,Canada,2017,CA,124,43.6534817,-79.3839347
Virginia Beach,72.88,37.05,55.24,75.53,69.37,126.81,United States,2017,US,840,36.8529841,-75.9774183
Southampton,72.77,31.26,52.33,61.49,76.78,95.25,United Kingdom,2017,GB,826,50.9025349,-1.404189
Nanaimo,72.64,23.36,48.38,81.24,60.16,85.7,Canada,2017,CA,124,49.163877,-123.938122
Karlsruhe,72.62,24.63,48.99,54.69,78.94,113.65,Germany,2017,DE,276,49.0068705,8.4034195
Wichita,72.56,24.87,49.08,78.53,68.65,94.16,United States,2017,US,840,37.6922361,-97.3375448
Columbus,72.48,34.29,53.68,72.85,65.5,127.65,United States,2017,US,840,39.9622601,-83.0007065
Bilbao,72.42,28.78,50.93,67.13,72.53,78.55,Spain,2017,ES,724,43.2630018,-2.9350039
London,72.36,24.38,48.74,72.67,66.58,94.42,Canada,2017,CA,124,42.9832406,-81.243372
Leeds,72.34,28.02,50.52,63.62,80.12,92.16,United Kingdom,2017,GB,826,53.7974185,-1.5437941
Fremont,72.33,71.85,72.09,64.86,76.33,139.47,United States,2017,US,840,37.5482697,-121.988571
Berlin,72.32,30.47,51.71,61.25,59.88,96.65,Germany,2017,DE,276,52.5186925,13.3996024
Bonn,72.23,27.82,50.37,56.55,68.41,98.18,Germany,2017,DE,276,50.735851,7.10066
Fort Myers,72.08,30.63,51.67,79.19,64.03,71.17,United States,2017,US,840,26.640628,-81.8723084
Bakersfield,72.08,28.2,50.47,75.73,68.96,110.66,United States,2017,US,840,35.3738712,-119.0194639
Sheffield,72.06,24.02,48.41,55.84,82.37,104.15,United Kingdom,2017,GB,826,53.3806626,-1.4702278
Naples,71.97,20.33,46.54,70.24,61.38,47.72,Italy,2017,IT,380,40.8358846,14.2487679
Fort Wayne,71.94,21.88,47.29,81.86,68.39,127.49,United States,2017,US,840,41.0799898,-85.1386015
Quebec City,71.94,17.78,45.27,76.11,64.92,101.72,Canada,2017,CA,124,46.8137431,-71.2084061
Winnipeg,71.85,24.59,48.58,73.05,67.34,91.56,Canada,2017,CA,124,49.8955367,-97.1384584
Cologne,71.65,27.81,50.07,55.35,69.27,111.0,Germany,2017,DE,276,50.938361,6.959974
Turin,71.63,21.43,46.91,61.23,74.34,73.54,Italy,2017,IT,380,45.0677551,7.6824892
Phoenix,71.45,32.02,52.04,67.59,77.01,122.68,United States,2017,US,840,33.4484367,-112.074141
Ann Arbor,71.41,42.12,56.99,72.37,62.74,152.98,United States,2017,US,840,42.2681569,-83.7312291
Vancouver,71.41,32.38,52.19,69.54,67.33,114.44,United States,2017,US,840,45.6306954,-122.6744557
Taipei,71.4,20.2,46.19,90.68,33.04,98.3,Taiwan,2017,TW,Unknown code,25.0375198,121.5636796
Surrey,71.37,29.56,50.79,75.26,65.61,74.38,Canada,2017,CA,124,49.1913033,-122.8491439
Guelph,71.22,28.42,50.15,70.26,68.49,96.81,Canada,2017,CA,124,43.5460516,-80.2493276
Windsor,71.18,20.12,46.04,66.44,62.45,106.15,Canada,2017,CA,124,42.317099,-83.0353434
Ottawa,71.16,31.28,51.52,68.1,73.36,110.28,Canada,2017,CA,124,45.4211435,-75.6900574
Newcastle Upon Tyne,70.97,24.67,48.17,56.47,79.46,105.44,United Kingdom,2017,GB,826,54.9738474,-1.6131572
Pensacola,70.9,28.0,49.78,75.85,64.15,116.64,United States,2017,US,840,30.421309,-87.2169149
Kingston,70.82,28.33,49.9,72.66,62.66,86.31,Canada,2017,CA,124,44.230687,-76.481323
Madison,70.79,37.22,54.26,70.54,69.64,120.06,United States,2017,US,840,43.074761,-89.3837613
Nuremberg,70.68,23.59,47.49,55.33,70.2,120.3,Germany,2017,DE,276,49.453872,11.077298
Birmingham,70.65,27.5,49.41,58.41,76.05,95.4,United Kingdom,2017,GB,826,52.4796992,-1.9026911
Cardiff,70.64,25.85,48.59,67.39,70.64,95.26,United Kingdom,2017,GB,826,51.4816546,-3.1791934
Moncton,70.55,18.32,44.83,71.92,64.2,94.85,Canada,2017,CA,124,46.097995,-64.80011
Dallas,70.47,38.6,54.78,69.25,68.82,171.08,United States,2017,US,840,32.7762719,-96.7968559
Montreal,70.42,24.94,48.03,74.77,65.86,99.17,Canada,2017,CA,124,45.5031824,-73.5698065
Palma De Mallorca,70.38,21.48,46.31,62.43,66.72,72.7,Spain,2017,ES,724,39.5695818,2.6500745
Toledo,70.34,21.16,46.13,65.31,59.33,122.39,United States,2017,US,840,41.6529143,-83.5378173
Gainesville,70.31,28.09,49.52,74.31,62.58,89.78,United States,2017,US,840,29.6519684,-82.3249846
Salt Lake City,70.3,36.53,53.67,70.54,71.5,137.74,United States,2017,US,840,40.7596198,-111.8867975
Brescia,70.11,18.17,44.54,60.99,74.19,79.03,Italy,2017,IT,380,45.77958045,10.4258729694612
Aachen,69.94,22.61,46.63,57.61,64.01,118.22,Germany,2017,DE,276,50.776351,6.083862
Kansas City,69.9,29.32,49.92,70.8,64.51,134.67,United States,2017,US,840,39.100105,-94.5781416
Doha,69.87,68.7,69.29,59.25,72.43,97.51,Qatar,2017,QA,634,25.2856329,51.5264162
Marseille,69.73,21.83,46.14,66.57,66.26,94.45,France,2017,FR,250,43.2961743,5.3699525
Mobile,69.53,24.51,47.37,74.84,66.25,123.62,United States,2017,US,840,30.6943566,-88.0430541
Albuquerque,69.52,25.16,47.68,72.62,68.17,123.47,United States,2017,US,840,35.0841034,-106.650985
Liverpool,69.35,23.49,46.77,53.69,80.98,98.9,United Kingdom,2017,GB,826,53.4071991,-2.99168
Kingston,69.25,14.56,42.32,73.27,40.14,27.35,Jamaica,2017,JM,388,17.9712148,-76.7928128
Taichung,69.0,12.07,40.97,89.23,30.56,51.13,Taiwan,2017,TW,Unknown code,24.163162,120.6478282
Belfast,68.51,22.25,45.73,63.53,76.9,96.37,United Kingdom,2017,GB,826,54.596391,-5.9301829
Malta,68.4,23.15,46.12,54.56,69.94,57.76,Malta,2017,MT,470,35.8885993,14.4476911
Dresden,68.2,19.77,44.36,55.23,55.27,107.42,Germany,2017,DE,276,51.0493286,13.7381437
Barcelona,68.0,30.0,49.29,58.54,64.74,70.89,Spain,2017,ES,724,41.3828939,2.1774322
Abu Dhabi,67.76,69.75,68.74,58.86,65.94,124.98,United Arab Emirates,2017,AE,784,24.4538352,54.3774014
Madrid,67.57,30.6,49.37,59.52,65.45,77.35,Spain,2017,ES,724,40.4167047,-3.7035825
Oklahoma City,67.35,26.8,47.39,72.88,61.47,127.31,United States,2017,US,840,35.4729886,-97.5170536
Bremen,67.22,21.38,44.65,51.25,65.82,128.83,Germany,2017,DE,276,53.0758196,8.8071646
Beirut,67.13,36.7,52.15,51.31,63.74,47.18,Lebanon,2017,LB,422,33.88922645,35.50255852895232
Knoxville,66.87,29.87,48.65,69.13,65.7,129.1,United States,2017,US,840,35.9603948,-83.9210261
Accra,66.86,38.4,52.85,68.33,43.66,13.25,Ghana,2017,GH,288,5.5571096,-0.2012376
Leipzig,66.65,19.4,43.39,51.09,60.34,84.79,Germany,2017,DE,276,51.3406321,12.3747329
Boise,66.58,27.45,47.31,67.43,67.32,108.08,United States,2017,US,840,43.6166163,-116.200886
College Station,66.43,32.74,49.84,75.55,59.93,100.41,United States,2017,US,840,30.5955289,-96.3071042
Huntsville,66.34,28.5,47.71,70.03,63.59,132.14,United States,2017,US,840,34.729847,-86.5859011
Hamilton,65.63,25.64,45.94,59.21,66.22,103.59,Canada,2017,CA,124,43.2560802,-79.8728583
Nicosia,65.45,15.34,40.78,55.82,75.69,80.35,Cyprus,2017,CY,196,35.1748976,33.3638568
Tucson,65.37,23.96,44.98,66.41,65.65,133.7,United States,2017,US,840,32.2228765,-110.9748477
Kitchener,64.9,25.68,45.59,61.13,61.39,110.51,Canada,2017,CA,124,43.451291,-80.4927815
Zaragoza (Saragossa),64.59,14.82,40.08,56.0,58.6,67.12,Spain,2017,ES,724,41.6521342,-0.8809428
Panama City,64.58,33.31,49.18,68.4,55.38,31.18,Panama,2017,PA,591,30.1600827,-85.6545729
San Antonio,64.53,35.59,50.28,64.35,64.45,151.28,United States,2017,US,840,29.4246002,-98.4951405
Ljubljana,64.38,18.75,41.91,55.71,52.85,62.86,Slovenia,2017,SI,705,46.0500268,14.5069289
Athens,63.81,24.98,44.69,61.12,69.13,115.33,United States,2017,US,840,33.9597677,-83.376398
Springfield,63.53,18.71,41.46,70.79,59.02,75.0,United States,2017,US,840,39.7990175,-89.6439575
Athens,63.17,12.8,38.37,52.05,62.51,46.02,Greece,2017,GR,300,37.9839412,23.7283052
San Jose,62.82,19.37,41.43,66.54,49.73,39.41,Costa Rica,2017,CR,188,9.9325427,-84.0795782
Reno,62.75,31.98,47.6,55.85,67.85,97.3,United States,2017,US,840,39.5261206,-119.8126581
Sharjah,62.75,29.39,46.32,55.77,43.26,112.18,United Arab Emirates,2017,AE,784,25.3461498,55.4210633
Limassol,62.63,20.2,41.74,52.97,66.19,92.17,Cyprus,2017,CY,196,34.6852901,33.0332657
Heraklion,62.54,10.19,36.77,56.69,56.83,52.8,Greece,2017,GR,300,35.3400127,25.1343475
Thessaloniki,62.2,10.7,36.84,50.66,59.25,44.31,Greece,2017,GR,300,40.6403167,22.9352716
Amman,62.03,14.96,38.85,54.76,58.22,37.1,Jordan,2017,JO,400,31.9515694,35.9239625
Manama,60.68,29.45,45.3,60.98,54.76,75.45,Bahrain,2017,BH,048,26.2235041,50.5822436
Kaohsiung,60.51,10.75,36.01,72.9,24.31,114.38,Taiwan,2017,TW,Unknown code,22.6203348,120.3120375
Valencia,59.16,18.6,39.19,50.76,57.79,81.71,Spain,2017,ES,724,39.4697065,-0.3763353
Buenos Aires,58.82,16.23,37.85,51.48,56.77,50.94,Argentina,2017,AR,032,-34.6075682,-58.4370894
Rio De Janeiro,58.43,22.74,40.86,47.02,46.86,33.68,Brazil,2017,BR,076,-22.9110137,-43.2093727
Sao Paulo,58.07,19.93,39.29,46.75,48.63,36.68,Brazil,2017,BR,076,-23.5506507,-46.6333824
Campinas,57.97,13.69,36.17,46.96,44.39,55.63,Brazil,2017,BR,076,-22.90556,-47.06083
Malaga,57.64,19.29,38.76,47.94,56.68,84.51,Spain,2017,ES,724,36.7213028,-4.4216366
Tallinn,57.45,16.11,37.1,44.73,57.92,62.36,Estonia,2017,EE,233,59.4372155,24.7453688
Rijeka,57.26,11.61,34.78,49.86,43.71,42.67,Croatia,2017,HR,191,45.3271752,14.4412309
Split,57.26,13.0,35.47,50.68,51.48,47.32,Croatia,2017,HR,191,43.5116383,16.4399659
Granada,56.89,14.16,35.85,51.56,48.33,79.88,Spain,2017,ES,724,37.1734995,-3.5995337
Sevilla,56.49,19.96,38.5,50.08,52.62,73.77,Spain,2017,ES,724,37.3886303,-5.9953403
Brasilia,56.14,15.55,36.15,47.68,46.08,37.65,Brazil,2017,BR,076,-10.3333333,-53.2
Shanghai,55.96,37.81,47.02,63.59,39.6,62.84,China,2017,CN,156,31.2322758,121.4692071
Lisbon,55.94,25.08,40.75,46.75,48.16,55.22,Portugal,2017,PT,620,38.7077507,-9.1365919
Recife,55.91,12.85,34.71,50.49,41.71,36.38,Brazil,2017,BR,076,-8.0584933,-34.8848193
Patras,55.85,9.0,32.78,47.11,53.87,58.61,Greece,2017,GR,300,38.246242,21.7350847
Zagreb,55.84,13.49,34.99,49.38,43.02,58.91,Croatia,2017,HR,191,45.8131847,15.9771774
Cordoba,55.79,10.96,33.72,49.35,49.92,48.99,Argentina,2017,AR,032,-31.4173391,-64.183319
Muscat,55.4,28.56,42.19,51.84,56.91,95.7,Oman,2017,OM,512,23.61515,58.5912467
Irbil,55.36,16.03,36.0,46.87,56.19,39.83,Iraq,2017,IQ,368,36.1911624,44.0094652
Phuket,55.08,13.9,34.81,60.64,26.92,39.72,Thailand,2017,TH,764,7.9366015,98.3529292
Santiago,55.01,16.75,36.17,49.17,51.38,46.27,Chile,2017,CL,152,-33.4377756,-70.6504502
Makati,54.67,27.34,41.21,59.93,32.23,42.77,Philippines,2017,PH,608,14.5567949,121.0211226
Santa Cruz De Tenerife,54.66,16.62,35.93,46.85,55.47,81.53,Spain,2017,ES,724,28.469648,-16.2540884
Porto Alegre,54.54,13.87,34.52,45.96,41.83,41.31,Brazil,2017,BR,076,-30.0324999,-51.2303767
Harare,54.52,14.98,35.05,48.17,40.49,21.74,Zimbabwe,2017,ZW,716,-17.831773,31.045686
Santo Domingo,54.17,12.95,33.88,47.65,49.69,22.44,Dominican Republic,2017,DO,214,18.4801972,-69.942111
Bangkok,54.15,24.69,39.64,63.28,25.35,39.66,Thailand,2017,TH,764,13.7525438,100.4934734
Porto,53.77,18.14,36.23,46.12,42.47,58.5,Portugal,2017,PT,620,41.1494512,-8.6107884
Vilnius,53.26,16.51,35.16,42.73,47.01,48.59,Lithuania,2017,LT,440,54.6870458,25.2829111
Riga,52.91,14.18,33.84,42.18,46.74,46.77,Latvia,2017,LV,428,56.9493977,24.1051846
Coimbra,52.59,13.62,33.4,45.69,40.37,64.23,Portugal,2017,PT,620,40.2111931,-8.4294632
Tartu,52.4,14.43,33.71,41.83,49.1,66.49,Estonia,2017,EE,233,58.3801207,26.72245
Bratislava,52.35,20.35,36.59,48.1,39.34,63.59,Slovakia,2017,SK,703,48.1516988,17.1093063
Florianopolis,52.18,14.42,33.59,41.98,42.34,34.58,Brazil,2017,BR,076,-27.5973002,-48.5496098
Ad Dammam,52.16,12.37,32.57,46.92,32.72,124.08,Saudi Arabia,2017,SA,682,26.4367824,50.1039991
Phnom Penh,51.97,18.94,35.7,57.8,25.1,21.15,Cambodia,2017,KH,116,11.568271,104.9224426
Dar Es Salaam,51.94,25.33,38.84,38.81,34.51,16.12,Tanzania,2017,TZ,Unknown code,-6.8160837,39.2803583
Jeddah (Jiddah),51.93,15.47,33.98,43.53,32.99,98.53,Saudi Arabia,2017,SA,682,21.483715949999997,39.17290852271105
Addis Ababa,51.69,22.52,37.33,46.34,23.65,13.03,Ethiopia,2017,ET,231,9.0107934,38.7612525
Belo Horizonte,51.63,12.91,32.56,42.08,39.34,30.85,Brazil,2017,BR,076,-19.9227318,-43.9450948
Braga,51.49,12.02,32.06,44.09,35.8,56.79,Portugal,2017,PT,620,41.5510583,-8.4280045
Shenzhen,51.44,24.25,38.06,56.04,32.73,72.73,China,2017,CN,156,22.5445741,114.0545429
Baghdad,51.41,15.08,33.52,46.83,43.7,47.2,Iraq,2017,IQ,368,33.3024309,44.3787992
Al Khobar,51.36,15.12,33.51,47.22,33.67,135.53,Saudi Arabia,2017,SA,682,26.3039999,50.1960237
San Salvador,51.19,11.77,31.78,51.25,37.85,24.94,El Salvador,2017,SV,222,13.6989939,-89.1914249
Guayaquil,51.17,13.58,32.66,47.48,37.93,31.04,Ecuador,2017,EC,218,-2.1900703,-79.8868702
Kaunas,51.08,10.52,31.11,41.34,44.05,47.89,Lithuania,2017,LT,440,54.8982139,23.9044817
Prague,50.87,22.19,36.75,45.88,36.59,67.23,Czech Republic,2017,CZ,Unknown code,50.0874654,14.4212535
Curitiba,50.86,12.16,31.81,40.9,41.68,43.74,Brazil,2017,BR,076,-25.4295963,-49.2712724
Moscow,50.74,32.41,41.72,40.37,54.24,51.46,Russia,2017,RU,Unknown code,55.7504461,37.6174943
Kosice,50.6,15.11,33.13,46.73,30.46,51.54,Slovakia,2017,SK,703,48.7172272,21.2496774
Riyadh,50.38,16.94,33.92,44.23,34.94,113.64,Saudi Arabia,2017,SA,682,24.638916,46.7160104
Las Palmas,50.18,16.93,33.81,44.24,49.45,72.51,Spain,2017,ES,724,28.1288694,-15.4349015
Pretoria,49.89,15.06,32.74,43.49,43.4,90.54,South Africa,2017,ZA,710,-25.7459277,28.1879101
Quito,49.84,14.22,32.3,50.57,37.06,29.91,Ecuador,2017,EC,218,-0.2201641,-78.5123274
Jakarta,49.44,21.74,35.8,55.49,27.68,35.1,Indonesia,2017,ID,360,-6.1753942,106.827183
Petaling Jaya,48.72,12.07,30.67,59.09,22.34,56.2,Malaysia,2017,MY,458,3.0991752,101.6450232
Budapest,48.64,16.13,32.63,39.62,36.0,47.17,Hungary,2017,HU,348,47.4979937,19.0403594
Guatemala City,48.57,16.1,32.58,46.53,37.11,40.26,Guatemala,2017,GT,320,14.6222328,-90.5185188
Penang,48.13,10.15,29.43,56.59,25.17,61.43,Malaysia,2017,MY,458,5.4065013,100.2559077
Johannesburg,48.1,19.89,34.21,42.49,44.33,104.97,South Africa,2017,ZA,710,-26.205,28.049722
Osijek,47.98,7.17,27.89,41.88,33.68,52.9,Croatia,2017,HR,191,45.5548793,18.6953685
Brno,47.67,16.69,32.42,43.94,32.88,65.2,Czech Republic,2017,CZ,Unknown code,49.1922443,16.6113382
Johor Bahru,47.6,10.59,29.38,60.4,23.05,41.41,Malaysia,2017,MY,458,1.503555,103.7495586
Chiang Mai,47.5,11.72,29.88,60.84,22.82,28.14,Thailand,2017,TH,764,18.7882778,98.9858802
Beijing,47.47,34.29,40.98,49.34,35.53,75.5,China,2017,CN,156,39.906217,116.3912757
Istanbul,47.42,15.39,31.65,42.43,35.12,48.69,Turkey,2017,TR,792,41.0091982,28.9662187
Kota Kinabalu,47.02,8.6,28.1,57.47,23.36,38.2,Malaysia,2017,MY,458,5.9780066,116.0728988
Pattaya,47.02,17.05,32.27,53.16,29.3,22.82,Thailand,2017,TH,764,12.9366674,100.8864587
Cape Town,46.95,27.06,37.15,42.24,42.68,78.12,South Africa,2017,ZA,710,-33.928992,18.417396
Kuala Lumpur,46.67,17.35,32.23,49.88,28.78,68.39,Malaysia,2017,MY,458,3.1516964,101.6942371
Saint Petersburg,46.66,19.33,33.2,39.01,46.68,46.63,Russia,2017,RU,Unknown code,59.938732,30.316229
Warsaw,46.32,20.42,33.56,37.86,39.58,67.94,Poland,2017,PL,616,52.2319581,21.0067249
Lima,46.2,18.5,32.56,43.24,34.7,35.35,Peru,2017,PE,604,-12.0621065,-77.0365256
Guangzhou,45.28,18.6,32.14,46.84,28.8,69.15,China,2017,CN,156,23.1301964,113.2592945
Bali,45.08,8.35,27.0,52.25,25.27,25.3,Indonesia,2017,ID,360,-8.3304977,115.0906401
Ulaanbaatar,44.95,17.33,31.35,43.45,29.3,29.97,Mongolia,2017,MN,496,47.94909925,107.02225913456641
Gdansk,44.92,15.1,30.24,35.33,35.43,68.69,Poland,2017,PL,616,54.36119285,18.62860883362069
Selangor,44.81,10.11,27.72,51.21,20.33,84.16,Malaysia,2017,MY,458,3.2083304,101.304146
Hanoi,44.77,15.45,30.33,43.69,24.2,19.51,Vietnam,2017,VN,Unknown code,21.0294498,105.8544441
Cuenca,44.51,10.55,27.79,46.4,28.99,33.91,Ecuador,2017,EC,218,-2.8971725,-79.0043742
Durban,44.5,15.34,30.14,39.04,40.28,83.21,South Africa,2017,ZA,710,-29.861825,31.009909
Wroclaw,44.39,17.27,31.03,37.03,37.09,58.58,Poland,2017,PL,616,51.1263106,16.97819633051261
Debrecen,44.35,9.3,27.09,38.71,31.82,38.08,Hungary,2017,HU,348,47.531399,21.6259782
Nairobi,44.15,13.66,29.13,42.8,35.64,22.27,Kenya,2017,KE,404,-1.2832533,36.8172449
Krakow (Cracow),44.1,16.94,30.73,36.13,35.59,67.86,Poland,2017,PL,616,50.047136,19.8896389
Ho Chi Minh City,44.06,17.54,31.0,49.01,21.11,33.18,Vietnam,2017,VN,Unknown code,10.7715512,106.6983801
Gdynia,43.79,12.88,28.57,36.82,34.21,63.58,Poland,2017,PL,616,54.5164982,18.5402738
Olomouc,43.74,12.05,28.14,42.36,29.58,70.25,Czech Republic,2017,CZ,Unknown code,49.5940567,17.251143
Cebu,43.57,12.09,28.07,45.73,24.44,21.97,Philippines,2017,PH,608,10.2931062,123.9020773
Podgorica,43.48,11.33,27.65,36.48,36.03,43.96,Montenegro,2017,ME,499,42.4415238,19.2621081
Bydgoszcz,43.3,13.75,28.75,35.28,36.28,56.7,Poland,2017,PL,616,53.12974625,18.029369658534854
Poznan,43.29,14.03,28.88,37.26,35.33,62.53,Poland,2017,PL,616,52.4006632,16.91973259178088
Ostrava,43.2,10.07,26.89,39.47,30.57,67.9,Czech Republic,2017,CZ,Unknown code,49.8349139,18.2820084
Ankara,43.18,8.05,25.88,39.63,32.59,52.67,Turkey,2017,TR,792,39.9207886,32.8540482
Tehran,42.67,20.89,31.95,40.02,32.72,36.85,Iran,2017,IR,Unknown code,35.6892523,51.3896004
Rabat,42.62,11.99,27.54,39.14,26.74,36.19,Morocco,2017,MA,504,34.022405,-6.834543
Manila,42.59,19.46,31.2,40.91,27.72,39.66,Philippines,2017,PH,608,14.5948914,120.9782618
Lodz,42.58,11.96,27.5,34.4,33.61,59.73,Poland,2017,PL,616,51.7687323,19.4569911
Surabaya,42.58,8.85,25.97,49.19,19.25,29.89,Indonesia,2017,ID,360,-7.2459717,112.7378266
Bucharest,42.28,12.91,27.82,35.5,38.81,50.74,Romania,2017,RO,642,44.4361414,26.1027202
Szczecin,42.21,11.76,27.21,34.7,32.29,55.8,Poland,2017,PL,616,53.42968095,14.592912670292268
Kigali,42.06,13.31,27.9,33.99,29.58,24.21,Rwanda,2017,RW,646,-1.950851,30.061507
Yekaterinburg,41.93,11.76,27.08,37.88,35.4,44.02,Russia,2017,RU,Unknown code,56.839104,60.60825
Sarajevo,41.89,9.1,25.75,36.48,30.47,42.32,Bosnia and Herzegovina,2017,BA,070,43.8519774,18.3866868
Sofia,41.76,11.55,26.89,37.17,32.5,51.44,Bulgaria,2017,BG,100,42.6978634,23.3221789
Izmir,41.69,8.53,25.36,38.49,29.08,43.99,Turkey,2017,TR,792,38.4224548,27.1310699
Belgrade,41.52,10.99,26.49,31.44,38.05,34.83,Serbia,2017,RS,688,44.8178131,20.4568974
Antalya,41.27,6.96,24.38,36.99,29.47,50.86,Turkey,2017,TR,792,36.9009641,30.6954846
Bursa,41.2,6.77,24.25,36.96,28.29,55.71,Turkey,2017,TR,792,40.1827657,29.0677305
Lublin,41.13,14.2,27.87,33.97,31.92,50.16,Poland,2017,PL,616,51.218194499999996,22.554677562145155
Monterrey,40.8,12.23,26.73,38.81,38.31,76.85,Mexico,2017,MX,484,25.6802019,-100.315258
Mexico City,40.77,17.64,29.38,39.0,36.19,54.57,Mexico,2017,MX,484,19.4326296,-99.1331785
Katowice,40.31,11.3,26.03,33.87,30.72,74.06,Poland,2017,PL,616,50.2137321,19.00588775660632
Algiers,40.25,9.26,24.99,42.91,26.67,28.61,Algeria,2017,DZ,012,36.7753606,3.0601882
Varna,40.18,8.13,24.4,36.77,32.69,43.91,Bulgaria,2017,BG,100,43.2073873,27.9166653
Lagos,39.86,18.37,29.28,41.47,20.83,19.04,Nigeria,2017,NG,566,6.4550575,3.3941795
Cluj-napoca,39.79,12.51,26.36,34.83,31.6,50.24,Romania,2017,RO,642,46.769379,23.5899542
Astana,39.45,16.19,27.99,33.98,41.37,36.81,Kazakhstan,2017,KZ,398,51.1282205,71.4306682
Novosibirsk,39.43,12.32,26.08,36.1,32.49,40.85,Russia,2017,RU,Unknown code,55.0282171,82.9234509
Banja Luka,39.28,6.75,23.26,33.45,27.43,42.4,Bosnia and Herzegovina,2017,BA,070,44.7720845,17.1917651
Casablanca,39.22,14.77,27.18,36.32,26.28,46.84,Morocco,2017,MA,504,33.5675527,-7.618756606822727
Colombo,39.21,11.33,25.48,43.32,23.41,22.62,Sri Lanka,2017,LK,144,6.9387469,79.8541134
Timisoara,38.84,9.89,24.59,33.8,31.98,52.1,Romania,2017,RO,642,45.7538355,21.2257474
Sibiu,38.79,7.97,23.62,33.21,32.16,39.29,Romania,2017,RO,642,45.7973912,24.1519202
Bandung,38.74,5.67,22.46,47.12,17.24,28.7,Indonesia,2017,ID,360,-6.9344694,107.6049539
Plovdiv,38.72,6.77,22.99,35.02,29.91,41.87,Bulgaria,2017,BG,100,42.1418541,24.7499297
Tirana,38.65,9.7,24.39,32.47,30.28,32.0,Albania,2017,AL,008,41.3281482,19.8184435
Medan,38.57,4.63,21.86,43.23,20.68,39.89,Indonesia,2017,ID,360,3.5896654,98.6738261
Iasi,38.51,9.31,24.13,32.17,32.57,45.67,Romania,2017,RO,642,47.1615341,27.5836142
Bogota,38.18,13.71,26.14,33.56,27.58,33.71,Colombia,2017,CO,170,4.6533326,-74.083652
Chengdu,38.13,11.22,24.88,36.53,27.48,69.81,China,2017,CN,156,30.6598628,104.0633717
Cancun,38.03,9.82,24.14,31.65,37.58,56.32,Mexico,2017,MX,484,21.1617854,-86.8510468
Novi Sad,37.94,6.88,22.65,30.73,27.72,35.97,Serbia,2017,RS,688,45.2551338,19.8451756
Almaty,37.78,12.8,25.48,31.42,37.37,42.26,Kazakhstan,2017,KZ,398,43.2363924,76.9457275
Queretaro,37.59,9.75,23.88,36.97,32.48,53.6,Mexico,2017,MX,484,20.5927744,-100.3902245
Skopje,37.33,8.26,23.01,30.52,27.99,37.51,Macedonia,2017,MK,Unknown code,41.9960924,21.4316495
Brasov,36.88,8.56,22.93,31.56,30.7,59.73,Romania,2017,RO,642,45.6523093,25.6102746
Tijuana,36.87,9.25,23.27,35.46,33.83,43.13,Mexico,2017,MX,484,32.5010188,-116.964662
Caracas,36.75,9.74,23.45,39.15,34.73,2.96,Venezuela,2017,VE,Unknown code,10.506098,-66.9146017
Merida,36.53,8.27,22.61,37.5,28.53,32.08,Mexico,2017,MX,484,20.9670759,-89.6237402
Guadalajara,36.49,8.53,22.72,37.24,32.25,52.24,Mexico,2017,MX,484,20.6720375,-103.338396
Asuncion,36.46,10.55,23.71,32.08,26.31,31.67,Paraguay,2017,PY,600,-25.2800459,-57.6343814
Kampala,36.4,8.11,22.47,32.58,25.13,19.34,Uganda,2017,UG,800,0.3177137,32.5813539
Yogyakarta,36.17,5.26,20.95,40.1,15.12,29.97,Indonesia,2017,ID,360,-7.9778383999999996,110.36722565020224
Puerto Vallarta,36.15,10.49,23.51,36.4,32.64,53.34,Mexico,2017,MX,484,20.6407176,-105.220306
Minsk,36.11,11.84,24.16,30.07,39.17,34.58,Belarus,2017,BY,112,53.9024716,27.5618225
Yerevan,36.07,9.77,23.12,29.56,32.57,31.13,Armenia,2017,AM,051,40.1776245,44.5126174
Gurgaon,36.05,10.3,23.37,35.31,31.73,98.51,India,2017,IN,356,28.42826235,77.00270014657752
Puebla,35.58,7.75,21.88,31.68,30.56,43.28,Mexico,2017,MX,484,18.833333,-98.0
Arad,35.12,8.38,21.96,30.37,25.3,60.36,Romania,2017,RO,642,46.1753793,21.3196342
Quezon City,35.03,7.21,21.33,32.87,19.64,25.99,Philippines,2017,PH,608,14.6509905,121.0486155
Kathmandu,34.89,4.61,19.98,33.47,19.83,23.2,Nepal,2017,NP,524,27.708317,85.3205817
Nis,34.55,4.98,19.99,27.09,28.29,34.19,Serbia,2017,RS,688,43.3211301,21.8959232
Medellin,34.3,9.12,21.9,31.56,25.58,29.91,Colombia,2017,CO,170,6.2443382,-75.573553
Islamabad,34.06,9.1,21.77,31.86,23.75,32.41,Pakistan,2017,PK,586,33.6938118,73.0651511
Craiova,33.71,6.0,20.07,28.93,24.15,50.73,Romania,2017,RO,642,44.3190159,23.7965614
Odesa,33.6,10.83,22.39,24.64,28.77,26.62,Ukraine,2017,UA,804,46.4843023,30.7322878
Chisinau,33.4,9.18,21.47,27.81,23.21,27.77,Moldova,2017,MD,Unknown code,47.0245117,28.8322923
Davao,33.33,6.7,20.22,33.26,16.53,27.93,Philippines,2017,PH,608,7.0645451,125.6084371
Tbilisi,33.12,10.47,21.97,28.09,32.16,26.68,Georgia,2017,GE,268,41.6934591,44.8014495
Mumbai,32.93,22.66,27.88,35.65,23.74,61.47,India,2017,IN,356,19.0759899,72.8773928
Baku,32.77,10.98,22.04,29.42,32.71,25.32,Azerbaijan,2017,AZ,031,40.3754434,49.8326748
Delhi,32.66,9.87,21.44,32.63,25.61,67.67,India,2017,IN,356,28.6517178,77.2219388
Cali,32.41,6.99,19.89,28.66,23.43,36.33,Colombia,2017,CO,170,3.4517923,-76.5324943
Noida,32.37,6.98,19.87,33.82,22.36,85.35,India,2017,IN,356,28.5707841,77.3271074
Lahore,32.29,6.0,19.35,28.98,28.36,45.85,Pakistan,2017,PK,586,31.5656822,74.3141829
Ludhiana,31.92,4.32,18.33,32.07,23.12,53.04,India,2017,IN,356,30.9090157,75.851601
Valenzuela,31.62,3.13,17.59,34.76,14.27,31.17,Philippines,2017,PH,608,14.6916903,120.9694534
Kiev,31.28,13.59,22.57,24.51,24.4,28.42,Ukraine,2017,UA,804,50.4500336,30.5241361
Pune,30.52,7.64,19.26,32.76,21.64,88.48,India,2017,IN,356,18.521428,73.8544541
Bangalore,30.24,9.41,19.98,32.95,19.57,86.79,India,2017,IN,356,12.9767936,77.590082
Tunis,29.93,6.51,18.4,28.94,20.42,32.94,Tunisia,2017,TN,788,33.8439408,9.400138
Thane,29.83,8.51,19.34,31.74,20.03,51.96,India,2017,IN,356,19.1943294,72.9701779
Navi Mumbai,29.41,9.72,19.72,31.29,20.53,73.3,India,2017,IN,356,19.0308262,73.0198537
Karachi,29.11,7.48,18.46,29.16,21.44,35.72,Pakistan,2017,PK,586,24.8546842,67.0207055
Ahmedabad,28.95,6.65,17.97,31.25,21.09,57.06,India,2017,IN,356,23.0216238,72.5797068
Chandigarh,28.94,6.31,17.79,30.74,19.97,64.7,India,2017,IN,356,30.7334421,76.7797143
Chennai,28.78,7.09,18.1,31.45,18.75,71.99,India,2017,IN,356,13.0836939,80.270186
Goa,28.52,7.57,18.2,30.98,20.94,49.66,India,2017,IN,356,15.3503192,74.10178169795284
Surat,28.47,4.5,16.67,30.17,21.43,55.55,India,2017,IN,356,21.19177615,72.9544157804841
Kolkata,28.28,6.97,17.79,29.91,22.74,47.99,India,2017,IN,356,22.5414185,88.35769124388872
Dnipropetrovsk,28.09,7.13,17.77,22.74,20.69,31.03,Ukraine,2017,UA,804,48.662589,34.9501715
Lucknow (Lakhnau),28.07,4.6,16.52,29.0,18.03,53.68,India,2017,IN,356,26.7736708,80.9431384
Jaipur,27.92,4.62,16.45,29.81,16.61,65.05,India,2017,IN,356,26.9154576,75.8189817
Kharkiv,27.85,9.94,19.03,22.03,19.26,22.54,Ukraine,2017,UA,804,49.9923181,36.2310146
Vadodara,27.31,3.85,15.76,31.5,16.06,67.23,India,2017,IN,356,22.2973142,73.1942567
Nagpur,27.18,4.86,16.19,29.35,19.34,68.56,India,2017,IN,356,21.1498134,79.0820556
Indore,27.01,4.28,15.82,26.64,16.98,44.2,India,2017,IN,356,22.7203616,75.8681996
Lviv,26.97,8.48,17.87,22.66,17.35,22.69,Ukraine,2017,UA,804,49.841952,24.0315921
Hyderabad,26.87,6.2,16.69,28.95,17.66,65.47,India,2017,IN,356,17.360589,78.4740613
Mysore,26.23,4.52,15.54,32.03,13.28,35.53,India,2017,IN,356,12.3051828,76.6553609
Cairo,26.19,5.14,15.83,23.3,22.47,23.96,Egypt,2017,EG,818,30.0443879,31.2357257
Visakhapatnam,25.57,5.14,15.51,28.4,16.13,53.78,India,2017,IN,356,17.7231276,83.3012842
Kochi,25.4,6.18,15.93,28.26,14.41,60.04,India,2017,IN,356,9.931308,76.2674136
Bhubaneswar,25.24,4.57,15.06,28.87,14.71,52.38,India,2017,IN,356,20.28105765,85.81140263163533
Coimbatore,24.83,5.61,15.37,26.31,15.29,47.01,India,2017,IN,356,11.0018115,76.9628425
Alexandria,24.54,5.09,14.96,23.5,17.66,21.42,Egypt,2017,EG,818,31.199004,29.894378
Mangalore,23.17,5.68,14.56,23.88,12.61,95.97,India,2017,IN,356,12.8698101,74.8430082
Thiruvananthapuram,21.75,5.17,13.59,23.72,12.12,62.76,India,2017,IN,356,8.5241122,76.9360573
Aachen,62.14,22.3,43.38,52.39,56.62,153.14,Germany,2016,DE,276,50.776351,6.083862
Aalborg,81.71,23.53,54.31,63.84,95.81,118.42,Denmark,2016,DK,208,57.0462626,9.9215263
Aberdeen,82.12,33.49,59.22,62.94,97.71,124.41,United Kingdom,2016,GB,826,57.1482429,-2.0928095
Abu Dhabi,62.74,69.91,66.12,53.59,61.65,134.74,United Arab Emirates,2016,AE,784,24.4538352,54.3774014
Accra,64.16,46.19,55.7,59.38,49.11,15.31,Ghana,2016,GH,288,5.5571096,-0.2012376
Ad Dammam,67.75,13.5,42.21,79.66,34.24,108.9,Saudi Arabia,2016,SA,682,26.4367824,50.1039991
Addis Ababa,45.17,21.85,34.19,37.27,23.8,17.63,Ethiopia,2016,ET,231,9.0107934,38.7612525
Adelaide,79.34,33.66,57.83,74.0,78.34,137.87,Australia,2016,AU,036,-34.9281805,138.5999312
Ahmedabad,23.99,5.32,15.2,24.59,15.88,72.71,India,2016,IN,356,23.0216238,72.5797068
Akron,86.83,21.98,56.3,94.44,74.23,82.19,United States,2016,US,840,41.083064,-81.518485
Al Khobar,47.54,15.95,32.67,40.29,33.96,279.02,Saudi Arabia,2016,SA,682,26.3039999,50.1960237
Albany,82.22,33.3,59.19,88.75,73.91,158.04,United States,2016,US,840,42.6511674,-73.754968
Albuquerque,64.46,25.22,45.98,61.95,68.67,138.87,United States,2016,US,840,35.0841034,-106.650985
Alessandria,85.32,9.01,49.39,78.69,76.42,119.38,Italy,2016,IT,380,44.83495335,8.745030418605868
Algiers,33.92,10.12,22.71,34.02,26.54,41.82,Algeria,2016,DZ,012,36.7753606,3.0601882
Alicante,57.09,15.7,37.6,43.99,49.6,85.68,Spain,2016,ES,724,38.3436365,-0.4881708
Allentown,86.59,32.41,61.08,91.75,74.59,82.12,United States,2016,US,840,40.6022059,-75.4712794
Almaty,31.03,12.24,22.18,25.15,32.52,50.24,Kazakhstan,2016,KZ,398,43.2363924,76.9457275
Amman,58.61,13.71,37.47,48.76,57.05,46.07,Jordan,2016,JO,400,31.9515694,35.9239625
Amsterdam,79.9,50.82,66.21,63.04,87.52,105.97,Netherlands,2016,NL,528,52.3727598,4.8936041
Anchorage,95.68,43.63,71.17,95.09,86.34,142.68,United States,2016,US,840,61.2163129,-149.894852
Ankara,44.84,9.02,27.97,39.6,33.33,70.6,Turkey,2016,TR,792,39.9207886,32.8540482
Ann Arbor,66.78,41.87,55.05,62.84,62.21,160.88,United States,2016,US,840,42.2681569,-83.7312291
Antalya,44.48,7.49,27.06,38.9,34.2,60.66,Turkey,2016,TR,792,36.9009641,30.6954846
Antwerp,79.2,27.41,54.81,70.48,89.04,99.12,Belgium,2016,BE,056,51.2211097,4.3997081
Arad,34.74,8.1,22.2,28.77,26.16,61.51,Romania,2016,RO,642,46.1753793,21.3196342
Arhus,81.83,32.82,58.75,59.12,102.57,122.82,Denmark,2016,DK,208,56.1496278,10.2134046
Arlington,87.48,75.14,81.67,82.12,88.06,116.39,United States,2016,US,840,32.7355816,-97.1071186
Asheville,80.21,36.91,59.82,89.02,70.28,143.33,United States,2016,US,840,35.6009498,-82.5540161
Astana,31.02,16.27,24.07,23.47,32.11,45.96,Kazakhstan,2016,KZ,398,51.1282205,71.4306682
Asuncion,32.51,9.03,21.45,24.96,26.97,43.43,Paraguay,2016,PY,600,-25.2800459,-57.6343814
Athens,58.75,12.24,36.85,45.43,64.36,56.39,Greece,2016,GR,300,37.9839412,23.7283052
Atlanta,73.98,40.9,58.4,74.35,68.63,151.56,United States,2016,US,840,33.7489924,-84.3902644
Auckland,83.71,45.32,65.63,75.33,74.33,104.64,New Zealand,2016,NZ,554,-36.852095,174.7631803
Austin,69.85,50.56,60.77,66.49,69.41,126.94,United States,2016,US,840,30.2711286,-97.7436995
Baghdad,47.87,17.03,33.35,36.71,45.15,63.93,Iraq,2016,IQ,368,33.3024309,44.3787992
Bakersfield,70.52,26.85,49.96,70.77,69.57,142.94,United States,2016,US,840,35.3738712,-119.0194639
Baku,29.25,10.84,20.58,24.09,32.12,35.76,Azerbaijan,2016,AZ,031,40.3754434,49.8326748
Bali,39.7,13.57,27.4,42.44,22.62,26.44,Indonesia,2016,ID,360,-8.3304977,115.0906401
Baltimore,76.83,49.19,63.81,76.6,77.41,152.44,United States,2016,US,840,39.2908816,-76.610759
Bandar Seri Begawan,54.51,18.28,37.45,51.97,34.78,66.65,Brunei,2016,BN,Unknown code,4.8895453,114.9417574
Bandung,35.51,7.67,22.4,41.88,15.87,29.78,Indonesia,2016,ID,360,-6.9344694,107.6049539
Bangalore,26.23,8.67,17.96,26.86,16.46,103.17,India,2016,IN,356,12.9767936,77.590082
Bangkok,50.51,25.91,38.93,55.05,26.04,49.86,Thailand,2016,TH,764,13.7525438,100.4934734
Banja Luka,35.66,6.73,22.04,28.4,26.8,55.04,Bosnia and Herzegovina,2016,BA,070,44.7720845,17.1917651
Barcelona,64.25,27.46,46.93,53.25,62.07,92.16,Spain,2016,ES,724,41.3828939,2.1774322
Bari,66.42,15.36,42.38,56.99,60.73,60.91,Italy,2016,IT,380,41.1257843,16.8620293
Barrie,70.65,27.03,50.11,69.04,62.51,132.95,Canada,2016,CA,124,44.3893113,-79.6901736
Basel,130.43,49.86,92.49,133.13,120.9,130.14,Switzerland,2016,CH,756,47.5581077,7.5878261
Bath,82.73,41.54,63.33,82.7,76.56,130.75,United Kingdom,2016,GB,826,51.380926349999996,-2.37418971512966
Beersheba,79.74,18.53,50.92,66.15,77.41,84.54,Israel,2016,IL,376,31.2457442,34.7925181
Beijing,51.84,41.96,47.19,51.41,37.36,67.87,China,2016,CN,156,39.906217,116.3912757
Beirut,62.26,40.23,51.88,45.48,61.06,60.16,Lebanon,2016,LB,422,33.88922645,35.50255852895232
Belfast,62.65,23.6,44.26,57.26,70.79,109.29,United Kingdom,2016,GB,826,54.596391,-5.9301829
Belgrade,36.86,10.08,24.25,26.6,32.99,44.06,Serbia,2016,RS,688,44.8178131,20.4568974
Belo Horizonte,46.94,13.22,31.07,37.26,34.83,44.89,Brazil,2016,BR,076,-19.9227318,-43.9450948
Bergamo,73.26,20.52,48.43,58.0,87.04,89.36,Italy,2016,IT,380,45.756655699999996,9.754219200862249
Bergen,105.59,43.49,76.35,94.86,112.63,112.84,Norway,2016,NO,578,60.3943055,5.3259192
Berkeley,88.72,77.46,83.42,96.91,79.12,106.72,United States,2016,US,840,37.8753497,-122.23963364918777
Berlin,65.68,27.97,47.92,52.12,57.43,122.4,Germany,2016,DE,276,52.5186925,13.3996024
Bern,120.3,46.38,85.49,118.18,117.81,144.0,Switzerland,2016,CH,756,46.9482713,7.4514512
Bhopal,25.64,4.35,15.62,21.05,12.76,58.81,India,2016,IN,356,23.2584857,77.401989
Bhubaneswar,22.44,4.15,13.83,23.27,12.9,65.31,India,2016,IN,356,20.28105765,85.81140263163533
Bilbao,65.24,27.72,47.58,55.19,69.37,97.83,Spain,2016,ES,724,43.2630018,-2.9350039
